[
  {"id": 1, "name": "Begumpet PS", "district": "Hyderabad North", "latitude": 17.4432, "longitude": 78.4675, "phone": "040-27853500"},
  {"id": 2, "name": "Bowenpally PS", "district": "Hyderabad North", "latitude": 17.4620, "longitude": 78.4780, "phone": "040-27853501"},
  {"id": 3, "name": "Tukaramgate Market PS", "district": "Hyderabad North", "latitude": 17.4380, "longitude": 78.4920, "phone": "040-27853502"},
  {"id": 4, "name": "Marredpally PS", "district": "Hyderabad North", "latitude": 17.4540, "longitude": 78.5020, "phone": "040-27853503"},
  {"id": 5, "name": "Mahankali PS", "district": "Hyderabad North", "latitude": 17.4350, "longitude": 78.4980, "phone": "040-27853504"},
  {"id": 6, "name": "Gopalpuram PS", "district": "Hyderabad North", "latitude": 17.4480, "longitude": 78.4850, "phone": "040-27853505"},
  {"id": 7, "name": "Tirumalgherry PS", "district": "Hyderabad North", "latitude": 17.4680, "longitude": 78.4880, "phone": "040-27853506"},
  {"id": 8, "name": "Karkhana PS", "district": "Hyderabad North", "latitude": 17.4520, "longitude": 78.4750, "phone": "040-27853507"},
  {"id": 9, "name": "Abids PS", "district": "Hyderabad North", "latitude": 17.3940, "longitude": 78.4760, "phone": "040-27853508"},
  {"id": 10, "name": "Ramgopalpet PS", "district": "Hyderabad North", "latitude": 17.4020, "longitude": 78.4820, "phone": "040-27853509"},
  {"id": 11, "name": "Secretariat PS", "district": "Hyderabad North", "latitude": 17.4090, "longitude": 78.4720, "phone": "040-27853510"},
  {"id": 12, "name": "Chikkadapally PS", "district": "Hyderabad North", "latitude": 17.4180, "longitude": 78.4890, "phone": "040-27853511"},
  {"id": 13, "name": "Gandhi Nagar PS", "district": "Hyderabad North", "latitude": 17.4250, "longitude": 78.4850, "phone": "040-27853512"},
  {"id": 14, "name": "Nampally PS", "district": "Hyderabad North", "latitude": 17.3920, "longitude": 78.4730, "phone": "040-27853513"},
  {"id": 15, "name": "Khairatabad PS", "district": "Hyderabad North", "latitude": 17.4120, "longitude": 78.4560, "phone": "040-27853514"},
  {"id": 16, "name": "Saifabad PS", "district": "Hyderabad North", "latitude": 17.4080, "longitude": 78.4720, "phone": "040-27853515"},
  {"id": 17, "name": "Charminar PS", "district": "Hyderabad South", "latitude": 17.3616, "longitude": 78.4747, "phone": "040-24521000"},
  {"id": 18, "name": "Kamatipura PS", "district": "Hyderabad South", "latitude": 17.3580, "longitude": 78.4680, "phone": "040-24521001"},
  {"id": 19, "name": "Hussainialam PS", "district": "Hyderabad South", "latitude": 17.3650, "longitude": 78.4720, "phone": "040-24521002"},
  {"id": 20, "name": "Chandrayangutta PS", "district": "Hyderabad South", "latitude": 17.3350, "longitude": 78.4970, "phone": "040-24521003"},
  {"id": 21, "name": "Falaknuma PS", "district": "Hyderabad South", "latitude": 17.3270, "longitude": 78.4650, "phone": "040-24521004"},
  {"id": 22, "name": "Bahadurpura PS", "district": "Hyderabad South", "latitude": 17.3420, "longitude": 78.4580, "phone": "040-24521005"},
  {"id": 23, "name": "Kalapathar PS", "district": "Hyderabad South", "latitude": 17.3780, "longitude": 78.4660, "phone": "040-24521006"},
  {"id": 24, "name": "Shalibanda PS", "district": "Hyderabad South", "latitude": 17.3680, "longitude": 78.4710, "phone": "040-24521007"},
  {"id": 25, "name": "Rein Bazaar PS", "district": "Hyderabad South", "latitude": 17.3550, "longitude": 78.4620, "phone": "040-24521008"},
  {"id": 26, "name": "Chatrinaka PS", "district": "Hyderabad South East", "latitude": 17.3480, "longitude": 78.4780, "phone": "040-24522000"},
  {"id": 27, "name": "Moghalpura PS", "district": "Hyderabad South East", "latitude": 17.3520, "longitude": 78.4820, "phone": "040-24522001"},
  {"id": 28, "name": "IS Sadan PS", "district": "Hyderabad South East", "latitude": 17.3560, "longitude": 78.4860, "phone": "040-24522002"},
  {"id": 29, "name": "Mirchowk PS", "district": "Hyderabad South East", "latitude": 17.3600, "longitude": 78.4750, "phone": "040-24522003"},
  {"id": 30, "name": "Bhavaninagar PS", "district": "Hyderabad South East", "latitude": 17.3450, "longitude": 78.4900, "phone": "040-24522004"},
  {"id": 31, "name": "Madannapet PS", "district": "Hyderabad South East", "latitude": 17.3580, "longitude": 78.5020, "phone": "040-24522005"},
  {"id": 32, "name": "Santosh Nagar PS", "district": "Hyderabad South East", "latitude": 17.3550, "longitude": 78.5070, "phone": "040-24522006"},
  {"id": 33, "name": "Saidabad PS", "district": "Hyderabad South East", "latitude": 17.3620, "longitude": 78.5130, "phone": "040-24522007"},
  {"id": 34, "name": "Chaderghat PS", "district": "Hyderabad South East", "latitude": 17.3730, "longitude": 78.4860, "phone": "040-24522008"},
  {"id": 35, "name": "Dabeerpura PS", "district": "Hyderabad South East", "latitude": 17.3680, "longitude": 78.4820, "phone": "040-24522009"},
  {"id": 36, "name": "Bandlaguda PS", "district": "Hyderabad South East", "latitude": 17.3380, "longitude": 78.5150, "phone": "040-24522010"},
  {"id": 37, "name": "Kanchanbagh PS", "district": "Hyderabad South East", "latitude": 17.3420, "longitude": 78.5080, "phone": "040-24522011"},
  {"id": 38, "name": "Malakpet PS", "district": "Hyderabad South East", "latitude": 17.3680, "longitude": 78.4960, "phone": "040-24522012"},
  {"id": 39, "name": "Asif Nagar PS", "district": "Hyderabad South West", "latitude": 17.4020, "longitude": 78.4450, "phone": "040-24523000"},
  {"id": 40, "name": "Humayun Nagar PS", "district": "Hyderabad South West", "latitude": 17.4080, "longitude": 78.4520, "phone": "040-24523001"},
  {"id": 41, "name": "Shainayath Gunj PS", "district": "Hyderabad South West", "latitude": 17.4050, "longitude": 78.4480, "phone": "040-24523002"},
  {"id": 42, "name": "Goshamahal PS", "district": "Hyderabad South West", "latitude": 17.3920, "longitude": 78.4590, "phone": "040-24523003"},
  {"id": 43, "name": "Langar House PS", "district": "Hyderabad South West", "latitude": 17.3980, "longitude": 78.4380, "phone": "040-24523004"},
  {"id": 44, "name": "Mangalhat PS", "district": "Hyderabad South West", "latitude": 17.4010, "longitude": 78.4420, "phone": "040-24523005"},
  {"id": 45, "name": "Kulsumpura PS", "district": "Hyderabad South West", "latitude": 17.3950, "longitude": 78.4350, "phone": "040-24523006"},
  {"id": 46, "name": "Golconda PS", "district": "Hyderabad South West", "latitude": 17.3830, "longitude": 78.4010, "phone": "040-24523007"},
  {"id": 47, "name": "Gudimalkapur PS", "district": "Hyderabad South West", "latitude": 17.3880, "longitude": 78.4280, "phone": "040-24523008"},
  {"id": 48, "name": "Masab Tank PS", "district": "Hyderabad South West", "latitude": 17.4010, "longitude": 78.4680, "phone": "040-24523009"},
  {"id": 49, "name": "Panjagutta PS", "district": "Hyderabad South West", "latitude": 17.4280, "longitude": 78.4510, "phone": "040-24523010"},
  {"id": 50, "name": "Madhura Nagar PS", "district": "Hyderabad South West", "latitude": 17.4350, "longitude": 78.4420, "phone": "040-24523011"},
  {"id": 51, "name": "Banjara Hills PS", "district": "Hyderabad West", "latitude": 17.4156, "longitude": 78.4347, "phone": "040-23393500"},
  {"id": 52, "name": "Borabanda PS", "district": "Hyderabad West", "latitude": 17.4420, "longitude": 78.4180, "phone": "040-23393501"},
  {"id": 53, "name": "Jubilee Hills PS", "district": "Hyderabad West", "latitude": 17.4320, "longitude": 78.4070, "phone": "040-23393502"},
  {"id": 54, "name": "Film Nagar PS", "district": "Hyderabad West", "latitude": 17.4180, "longitude": 78.3980, "phone": "040-23393503"},
  {"id": 55, "name": "SR Nagar PS", "district": "Hyderabad West", "latitude": 17.4410, "longitude": 78.4500, "phone": "040-23393504"},
  {"id": 56, "name": "Ameerpet PS", "district": "Hyderabad West", "latitude": 17.4370, "longitude": 78.4480, "phone": "040-23393505"},
  {"id": 57, "name": "Punjagutta PS", "district": "Hyderabad West", "latitude": 17.4280, "longitude": 78.4510, "phone": "040-23393506"},
  {"id": 58, "name": "Narayanguda PS", "district": "Hyderabad East", "latitude": 17.3980, "longitude": 78.4860, "phone": "040-27600500"},
  {"id": 59, "name": "Himayatnagar PS", "district": "Hyderabad East", "latitude": 17.4080, "longitude": 78.4870, "phone": "040-27600501"},
  {"id": 60, "name": "Sultan Bazar PS", "district": "Hyderabad East", "latitude": 17.3880, "longitude": 78.4820, "phone": "040-27600502"},
  {"id": 61, "name": "Koti PS", "district": "Hyderabad East", "latitude": 17.3850, "longitude": 78.4870, "phone": "040-27600503"},
  {"id": 62, "name": "Afzalgunj PS", "district": "Hyderabad East", "latitude": 17.3820, "longitude": 78.4790, "phone": "040-27600504"},
  {"id": 63, "name": "Madhapur PS", "district": "Cyberabad", "latitude": 17.4486, "longitude": 78.3908, "phone": "040-23112345"},
  {"id": 64, "name": "Chandanagar PS", "district": "Cyberabad", "latitude": 17.4950, "longitude": 78.3250, "phone": "040-23112346"},
  {"id": 65, "name": "Raidurgam PS", "district": "Cyberabad", "latitude": 17.4270, "longitude": 78.3870, "phone": "040-23112347"},
  {"id": 66, "name": "Miyapur PS", "district": "Cyberabad", "latitude": 17.4969, "longitude": 78.3544, "phone": "040-23112348"},
  {"id": 67, "name": "Gachibowli PS", "district": "Cyberabad", "latitude": 17.4401, "longitude": 78.3489, "phone": "040-27855500"},
  {"id": 68, "name": "RC Puram PS", "district": "Cyberabad", "latitude": 17.5120, "longitude": 78.3080, "phone": "040-23112350"},
  {"id": 69, "name": "WPS IT Corridor", "district": "Cyberabad", "latitude": 17.4380, "longitude": 78.3750, "phone": "040-23112351"},
  {"id": 70, "name": "Kollur PS", "district": "Cyberabad", "latitude": 17.4250, "longitude": 78.3420, "phone": "040-23112352"},
  {"id": 71, "name": "Kukatpally PS", "district": "Cyberabad", "latitude": 17.4849, "longitude": 78.4138, "phone": "040-23056789"},
  {"id": 72, "name": "Balanagar PS", "district": "Cyberabad", "latitude": 17.4780, "longitude": 78.4420, "phone": "040-23025678"},
  {"id": 73, "name": "KPHB PS", "district": "Cyberabad", "latitude": 17.4920, "longitude": 78.3980, "phone": "040-23112355"},
  {"id": 74, "name": "Sanathnagar PS", "district": "Cyberabad", "latitude": 17.4560, "longitude": 78.4380, "phone": "040-23112356"},
  {"id": 75, "name": "Bachupally PS", "district": "Cyberabad", "latitude": 17.5380, "longitude": 78.3850, "phone": "040-23112357"},
  {"id": 76, "name": "Jeedimetla PS", "district": "Cyberabad", "latitude": 17.5120, "longitude": 78.4610, "phone": "040-23029012"},
  {"id": 77, "name": "Allapur PS", "district": "Cyberabad", "latitude": 17.4880, "longitude": 78.4280, "phone": "040-23112359"},
  {"id": 78, "name": "Jagadgirigutta PS", "district": "Cyberabad", "latitude": 17.5080, "longitude": 78.4150, "phone": "040-23112360"},
  {"id": 79, "name": "Pet Basheerabad PS", "district": "Cyberabad", "latitude": 17.5320, "longitude": 78.4370, "phone": "040-23047890"},
  {"id": 80, "name": "Medchal PS", "district": "Cyberabad", "latitude": 17.6290, "longitude": 78.4810, "phone": "040-27937890"},
  {"id": 81, "name": "Shamirpet PS", "district": "Cyberabad", "latitude": 17.6130, "longitude": 78.5610, "phone": "040-27945678"},
  {"id": 82, "name": "Suraram PS", "district": "Cyberabad", "latitude": 17.5580, "longitude": 78.4650, "phone": "040-23112364"},
  {"id": 83, "name": "Alwal PS", "district": "Cyberabad", "latitude": 17.5010, "longitude": 78.4920, "phone": "040-27121234"},
  {"id": 84, "name": "Dundigal PS", "district": "Cyberabad", "latitude": 17.5630, "longitude": 78.4280, "phone": "040-23023456"},
  {"id": 85, "name": "Genome Valley PS", "district": "Cyberabad", "latitude": 17.5450, "longitude": 78.5120, "phone": "040-23112368"},
  {"id": 86, "name": "Rajendranagar PS", "district": "Cyberabad", "latitude": 17.3100, "longitude": 78.4150, "phone": "040-24023344"},
  {"id": 87, "name": "Narsingi PS", "district": "Cyberabad", "latitude": 17.3850, "longitude": 78.3590, "phone": "040-23145566"},
  {"id": 88, "name": "Chevella PS", "district": "Cyberabad", "latitude": 17.3090, "longitude": 78.1350, "phone": "08413-252233"},
  {"id": 89, "name": "Mailardevpally PS", "district": "Cyberabad", "latitude": 17.3280, "longitude": 78.3980, "phone": "040-23112373"},
  {"id": 90, "name": "Shankarpally PS", "district": "Cyberabad", "latitude": 17.4520, "longitude": 78.1320, "phone": "040-23112374"},
  {"id": 91, "name": "Shabad PS", "district": "Cyberabad", "latitude": 17.1820, "longitude": 78.1450, "phone": "040-23112375"},
  {"id": 92, "name": "Attapur PS", "district": "Cyberabad", "latitude": 17.3680, "longitude": 78.4180, "phone": "040-23112376"},
  {"id": 93, "name": "Mokila PS", "district": "Cyberabad", "latitude": 17.3950, "longitude": 78.2770, "phone": "040-23147788"},
  {"id": 94, "name": "Moinabad PS", "district": "Cyberabad", "latitude": 17.3180, "longitude": 78.2680, "phone": "040-23112378"},
  {"id": 95, "name": "Shamshabad PS", "district": "Cyberabad", "latitude": 17.2400, "longitude": 78.4290, "phone": "08413-257788"},
  {"id": 96, "name": "Shadnagar PS", "district": "Cyberabad", "latitude": 17.0670, "longitude": 78.2010, "phone": "08548-252233"},
  {"id": 97, "name": "RGI Airport PS", "district": "Cyberabad", "latitude": 17.2403, "longitude": 78.4294, "phone": "040-23112381"},
  {"id": 98, "name": "Kothur PS", "district": "Cyberabad", "latitude": 17.1180, "longitude": 78.1350, "phone": "08548-256677"},
  {"id": 99, "name": "Keshampet PS", "district": "Cyberabad", "latitude": 17.1520, "longitude": 78.2480, "phone": "040-23112383"},
  {"id": 100, "name": "Nandigama PS", "district": "Cyberabad", "latitude": 17.1850, "longitude": 78.3120, "phone": "040-23112384"},
  {"id": 101, "name": "Kondurg PS", "district": "Cyberabad", "latitude": 17.0280, "longitude": 78.1950, "phone": "040-23112385"},
  {"id": 102, "name": "Choudarigudem PS", "district": "Cyberabad", "latitude": 17.1120, "longitude": 78.2150, "phone": "040-23112386"},
  {"id": 103, "name": "Amangal PS", "district": "Cyberabad", "latitude": 17.0980, "longitude": 78.3480, "phone": "040-23112387"},
  {"id": 104, "name": "Talakondapally PS", "district": "Cyberabad", "latitude": 17.1580, "longitude": 78.3850, "phone": "040-23112388"},
  {"id": 105, "name": "Kadthal PS", "district": "Cyberabad", "latitude": 17.0450, "longitude": 78.4280, "phone": "040-23112389"},
  {"id": 106, "name": "Malkajgiri PS", "district": "Malkajgiri", "latitude": 17.4520, "longitude": 78.5270, "phone": "040-27205678"},
  {"id": 107, "name": "Nacharam PS", "district": "Malkajgiri", "latitude": 17.4280, "longitude": 78.5480, "phone": "040-27201001"},
  {"id": 108, "name": "Uppal PS", "district": "Malkajgiri", "latitude": 17.4040, "longitude": 78.5590, "phone": "040-27179012"},
  {"id": 109, "name": "Medipally PS", "district": "Malkajgiri", "latitude": 17.4320, "longitude": 78.5720, "phone": "040-27201003"},
  {"id": 110, "name": "Ghatkesar PS", "district": "Malkajgiri", "latitude": 17.4510, "longitude": 78.6870, "phone": "040-29405678"},
  {"id": 111, "name": "Pocharam IT Corridor PS", "district": "Malkajgiri", "latitude": 17.4780, "longitude": 78.6340, "phone": "040-29409012"},
  {"id": 112, "name": "Kushaiguda PS", "district": "Malkajgiri", "latitude": 17.4720, "longitude": 78.5580, "phone": "040-27201007"},
  {"id": 113, "name": "Cherlapally PS", "district": "Malkajgiri", "latitude": 17.4650, "longitude": 78.5820, "phone": "040-27201008"},
  {"id": 114, "name": "Neredmet PS", "district": "Malkajgiri", "latitude": 17.4740, "longitude": 78.5330, "phone": "040-27197890"},
  {"id": 115, "name": "Jawahar Nagar PS", "district": "Malkajgiri", "latitude": 17.4580, "longitude": 78.5420, "phone": "040-27201010"},
  {"id": 116, "name": "Keesara PS", "district": "Malkajgiri", "latitude": 17.5210, "longitude": 78.5890, "phone": "040-29413456"},
  {"id": 117, "name": "LB Nagar PS", "district": "Malkajgiri LB Nagar", "latitude": 17.3480, "longitude": 78.5480, "phone": "040-24083456"},
  {"id": 118, "name": "Saroornagar PS", "district": "Malkajgiri LB Nagar", "latitude": 17.3280, "longitude": 78.5180, "phone": "040-24099012"},
  {"id": 119, "name": "Chaitanyapuri PS", "district": "Malkajgiri LB Nagar", "latitude": 17.3550, "longitude": 78.5350, "phone": "040-27202003"},
  {"id": 120, "name": "Nagole PS", "district": "Malkajgiri LB Nagar", "latitude": 17.3850, "longitude": 78.5560, "phone": "040-27123456"},
  {"id": 121, "name": "Vanasthalipuram PS", "district": "Malkajgiri LB Nagar", "latitude": 17.3250, "longitude": 78.5510, "phone": "040-24037890"},
  {"id": 122, "name": "Hayathnagar PS", "district": "Malkajgiri LB Nagar", "latitude": 17.3200, "longitude": 78.5890, "phone": "040-24001234"},
  {"id": 123, "name": "Meerpet PS", "district": "Malkajgiri LB Nagar", "latitude": 17.3080, "longitude": 78.5250, "phone": "040-24005678"},
  {"id": 124, "name": "Abdullapurmet PS", "district": "Malkajgiri LB Nagar", "latitude": 17.2850, "longitude": 78.5680, "phone": "040-27202008"},
  {"id": 125, "name": "Ibrahimpatnam PS", "district": "Malkajgiri LB Nagar", "latitude": 17.2580, "longitude": 78.6120, "phone": "040-27202009"},
  {"id": 126, "name": "Manchal PS", "district": "Malkajgiri LB Nagar", "latitude": 17.2120, "longitude": 78.5850, "phone": "040-27202010"},
  {"id": 127, "name": "Yacharam PS", "district": "Malkajgiri LB Nagar", "latitude": 17.1780, "longitude": 78.5480, "phone": "040-27202011"},
  {"id": 128, "name": "Kandukur PS", "district": "Malkajgiri LB Nagar", "latitude": 17.1420, "longitude": 78.5150, "phone": "040-27202012"},
  {"id": 129, "name": "Maheshwaram PS", "district": "Malkajgiri LB Nagar", "latitude": 17.1680, "longitude": 78.4580, "phone": "040-27202013"},
  {"id": 130, "name": "Adibatla PS", "district": "Malkajgiri LB Nagar", "latitude": 17.2450, "longitude": 78.4950, "phone": "040-27202014"},
  {"id": 131, "name": "Madgul PS", "district": "Malkajgiri LB Nagar", "latitude": 17.2180, "longitude": 78.5280, "phone": "040-27202015"},
  {"id": 132, "name": "Bhuvanagiri Town PS", "district": "Yadadri Bhongir", "latitude": 17.5140, "longitude": 78.8820, "phone": "08685-252233"},
  {"id": 133, "name": "Bhuvanagiri Rural PS", "district": "Yadadri Bhongir", "latitude": 17.5080, "longitude": 78.8650, "phone": "08685-252234"},
  {"id": 134, "name": "Bommalaramaram PS", "district": "Yadadri Bhongir", "latitude": 17.5420, "longitude": 78.9180, "phone": "08685-252235"},
  {"id": 135, "name": "Bibinagar PS", "district": "Yadadri Bhongir", "latitude": 17.4980, "longitude": 78.8280, "phone": "08685-252236"},
  {"id": 136, "name": "Yadadri PS", "district": "Yadadri Bhongir", "latitude": 17.5870, "longitude": 78.9610, "phone": "08685-278899"},
  {"id": 137, "name": "Turkapally PS", "district": "Yadadri Bhongir", "latitude": 17.5520, "longitude": 78.9850, "phone": "08685-252238"},
  {"id": 138, "name": "Rajapeta PS", "district": "Yadadri Bhongir", "latitude": 17.6180, "longitude": 78.9420, "phone": "08685-252239"},
  {"id": 139, "name": "Alair PS", "district": "Yadadri Bhongir", "latitude": 17.4820, "longitude": 79.0580, "phone": "08685-252240"},
  {"id": 140, "name": "Motakondur PS", "district": "Yadadri Bhongir", "latitude": 17.4380, "longitude": 79.0120, "phone": "08685-252241"},
  {"id": 141, "name": "Choutuppal PS", "district": "Yadadri Bhongir", "latitude": 17.2520, "longitude": 78.8980, "phone": "08685-252242"},
  {"id": 142, "name": "Pochampally PS", "district": "Yadadri Bhongir", "latitude": 17.3480, "longitude": 78.8280, "phone": "08685-252243"},
  {"id": 143, "name": "Narayanapur PS", "district": "Yadadri Bhongir", "latitude": 17.3180, "longitude": 78.9120, "phone": "08685-252244"},
  {"id": 144, "name": "Ramannapet PS", "district": "Yadadri Bhongir", "latitude": 17.2880, "longitude": 79.0450, "phone": "08685-252245"},
  {"id": 145, "name": "Valigonda PS", "district": "Yadadri Bhongir", "latitude": 17.2180, "longitude": 79.1280, "phone": "08685-252246"},
  {"id": 146, "name": "Athmakur PS", "district": "Yadadri Bhongir", "latitude": 17.1580, "longitude": 79.0820, "phone": "08685-252247"},
  {"id": 147, "name": "Mothkur PS", "district": "Yadadri Bhongir", "latitude": 17.3780, "longitude": 79.1580, "phone": "08685-252248"},
  {"id": 148, "name": "Addaguduru PS", "district": "Yadadri Bhongir", "latitude": 17.4180, "longitude": 79.2280, "phone": "08685-252249"},
  {"id": 149, "name": "Warangal City PS", "district": "Warangal Urban", "latitude": 17.9780, "longitude": 79.5970, "phone": "0870-2578899"},
  {"id": 150, "name": "Hanamkonda PS", "district": "Warangal Urban", "latitude": 18.0060, "longitude": 79.5610, "phone": "0870-2578800"},
  {"id": 151, "name": "Kazipet PS", "district": "Warangal Urban", "latitude": 17.9600, "longitude": 79.5320, "phone": "0870-2570011"},
  {"id": 152, "name": "Subedari PS", "district": "Warangal Urban", "latitude": 17.9920, "longitude": 79.5780, "phone": "0870-2571001"},
  {"id": 153, "name": "Mulugu PS", "district": "Warangal Urban", "latitude": 18.0180, "longitude": 79.5450, "phone": "0870-2571002"},
  {"id": 154, "name": "Bheemdevarapally PS", "district": "Warangal Urban", "latitude": 18.0450, "longitude": 79.5820, "phone": "0870-2571003"},
  {"id": 155, "name": "Elkathurthy PS", "district": "Warangal Urban", "latitude": 17.9250, "longitude": 79.5150, "phone": "0870-2571004"},
  {"id": 156, "name": "Nekkonda PS", "district": "Warangal Urban", "latitude": 17.8920, "longitude": 79.5680, "phone": "0870-2571005"},
  {"id": 157, "name": "Dharmasagar PS", "district": "Warangal Rural", "latitude": 18.0580, "longitude": 79.4820, "phone": "0870-2572001"},
  {"id": 158, "name": "Parkal PS", "district": "Warangal Rural", "latitude": 18.1920, "longitude": 79.6850, "phone": "0870-2572002"},
  {"id": 159, "name": "Narsampet PS", "district": "Warangal Rural", "latitude": 17.9280, "longitude": 79.8920, "phone": "0870-2572003"},
  {"id": 160, "name": "Chennaraopet PS", "district": "Warangal Rural", "latitude": 17.8650, "longitude": 79.9580, "phone": "0870-2572004"},
  {"id": 161, "name": "Duggondi PS", "district": "Warangal Rural", "latitude": 17.8120, "longitude": 79.7250, "phone": "0870-2572005"},
  {"id": 162, "name": "Wardhannapet PS", "district": "Warangal Rural", "latitude": 17.8580, "longitude": 79.6120, "phone": "0870-2572006"},
  {"id": 163, "name": "Sangem PS", "district": "Warangal Rural", "latitude": 18.0850, "longitude": 79.3580, "phone": "0870-2572007"},
  {"id": 164, "name": "Geesugonda PS", "district": "Warangal Rural", "latitude": 18.1280, "longitude": 79.4280, "phone": "0870-2572008"},
  {"id": 165, "name": "Jangaon PS", "district": "Jangaon", "latitude": 17.7200, "longitude": 79.1580, "phone": "08719-252233"},
  {"id": 166, "name": "Raghunathpally PS", "district": "Jangaon", "latitude": 17.7620, "longitude": 79.1120, "phone": "08719-252234"},
  {"id": 167, "name": "Lingalaghanpur PS", "district": "Jangaon", "latitude": 17.6820, "longitude": 79.2050, "phone": "08719-252235"},
  {"id": 168, "name": "Station Ghanpur PS", "district": "Jangaon", "latitude": 17.7480, "longitude": 79.2480, "phone": "08719-252236"},
  {"id": 169, "name": "Palakurthy PS", "district": "Jangaon", "latitude": 17.6180, "longitude": 79.3280, "phone": "08719-252237"},
  {"id": 170, "name": "Devaruppula PS", "district": "Jangaon", "latitude": 17.6520, "longitude": 79.0850, "phone": "08719-252238"},
  {"id": 171, "name": "Kodakandla PS", "district": "Jangaon", "latitude": 17.7920, "longitude": 79.0120, "phone": "08719-252239"},
  {"id": 172, "name": "Suryapet Town PS", "district": "Suryapet", "latitude": 17.1380, "longitude": 79.6270, "phone": "08684-252233"},
  {"id": 173, "name": "Kodad PS", "district": "Suryapet", "latitude": 17.1150, "longitude": 79.9680, "phone": "08684-252234"},
  {"id": 174, "name": "Huzurnagar PS", "district": "Suryapet", "latitude": 17.0580, "longitude": 79.8850, "phone": "08684-252235"},
  {"id": 175, "name": "Mellacheruvu PS", "district": "Suryapet", "latitude": 17.2280, "longitude": 79.4980, "phone": "08684-252236"},
  {"id": 176, "name": "Mattampally PS", "district": "Suryapet", "latitude": 17.0120, "longitude": 79.6450, "phone": "08684-252237"},
  {"id": 177, "name": "Nalgonda Town PS", "district": "Nalgonda", "latitude": 17.0500, "longitude": 79.2670, "phone": "08682-233455"},
  {"id": 178, "name": "Miryalaguda PS", "district": "Nalgonda", "latitude": 16.8740, "longitude": 79.5650, "phone": "08689-222344"},
  {"id": 179, "name": "Devarakonda PS", "district": "Nalgonda", "latitude": 16.6920, "longitude": 79.2850, "phone": "08682-233456"},
  {"id": 180, "name": "Nakrekal PS", "district": "Nalgonda", "latitude": 17.1620, "longitude": 79.4180, "phone": "08682-233457"},
  {"id": 181, "name": "Haliya PS", "district": "Nalgonda", "latitude": 16.7580, "longitude": 79.3420, "phone": "08682-233458"},
  {"id": 182, "name": "Kattangur PS", "district": "Nalgonda", "latitude": 17.2480, "longitude": 79.2050, "phone": "08682-233459"},
  {"id": 183, "name": "Karimnagar Town PS", "district": "Karimnagar", "latitude": 18.4350, "longitude": 79.1290, "phone": "0878-2244556"},
  {"id": 184, "name": "Huzurabad PS", "district": "Karimnagar", "latitude": 18.1970, "longitude": 79.3990, "phone": "08727-255667"},
  {"id": 185, "name": "Choppadandi PS", "district": "Karimnagar", "latitude": 18.5020, "longitude": 79.0580, "phone": "0878-2244557"},
  {"id": 186, "name": "Chigurumamidi PS", "district": "Karimnagar", "latitude": 18.5420, "longitude": 79.1850, "phone": "0878-2244558"},
  {"id": 187, "name": "Ganneruvaram PS", "district": "Karimnagar", "latitude": 18.3680, "longitude": 79.0120, "phone": "0878-2244559"},
  {"id": 188, "name": "Manakondur PS", "district": "Karimnagar", "latitude": 18.3120, "longitude": 79.2280, "phone": "0878-2244560"},
  {"id": 189, "name": "Thimmapur PS", "district": "Karimnagar", "latitude": 18.2580, "longitude": 79.1050, "phone": "0878-2244561"},
  {"id": 190, "name": "Jagtial PS", "district": "Jagtial", "latitude": 18.7900, "longitude": 78.9140, "phone": "08724-244455"},
  {"id": 191, "name": "Koratla PS", "district": "Jagtial", "latitude": 18.8220, "longitude": 78.7120, "phone": "08724-244456"},
  {"id": 192, "name": "Metpally PS", "district": "Jagtial", "latitude": 18.8520, "longitude": 78.5850, "phone": "08724-244457"},
  {"id": 193, "name": "Raikal PS", "district": "Jagtial", "latitude": 18.8920, "longitude": 78.8280, "phone": "08724-244458"},
  {"id": 194, "name": "Dharmapuri PS", "district": "Jagtial", "latitude": 18.9480, "longitude": 79.0150, "phone": "08724-244459"},
  {"id": 195, "name": "Peddapalli PS", "district": "Peddapalli", "latitude": 18.6130, "longitude": 79.3830, "phone": "08752-244455"},
  {"id": 196, "name": "Ramagundam PS", "district": "Peddapalli", "latitude": 18.7550, "longitude": 79.4740, "phone": "08728-244455"},
  {"id": 197, "name": "Godavarikhani PS", "district": "Peddapalli", "latitude": 18.7620, "longitude": 79.4880, "phone": "08728-244456"},
  {"id": 198, "name": "Sultanabad PS", "district": "Peddapalli", "latitude": 18.6820, "longitude": 79.3180, "phone": "08752-244456"},
  {"id": 199, "name": "Manthani PS", "district": "Peddapalli", "latitude": 18.6520, "longitude": 79.5820, "phone": "08752-244457"},
  {"id": 200, "name": "Mancherial PS", "district": "Mancherial", "latitude": 18.8680, "longitude": 79.4380, "phone": "08736-244455"},
  {"id": 201, "name": "Bellampalli PS", "district": "Mancherial", "latitude": 19.0560, "longitude": 79.4930, "phone": "08738-255667"},
  {"id": 202, "name": "Mandamarri PS", "district": "Mancherial", "latitude": 19.0080, "longitude": 79.4680, "phone": "08736-244456"},
  {"id": 203, "name": "Naspur PS", "district": "Mancherial", "latitude": 18.9280, "longitude": 79.5220, "phone": "08736-244457"},
  {"id": 204, "name": "Chennur PS", "district": "Mancherial", "latitude": 18.8320, "longitude": 79.6180, "phone": "08736-244458"},
  {"id": 205, "name": "Adilabad Town PS", "district": "Adilabad", "latitude": 19.6640, "longitude": 78.5320, "phone": "08732-244455"},
  {"id": 206, "name": "Utnoor PS", "district": "Adilabad", "latitude": 19.3520, "longitude": 78.8120, "phone": "08732-244456"},
  {"id": 207, "name": "Jainath PS", "district": "Adilabad", "latitude": 19.5280, "longitude": 78.3850, "phone": "08732-244457"},
  {"id": 208, "name": "Boath PS", "district": "Adilabad", "latitude": 19.4520, "longitude": 78.6180, "phone": "08732-244458"},
  {"id": 209, "name": "Ichoda PS", "district": "Adilabad", "latitude": 19.4820, "longitude": 78.4850, "phone": "08732-244459"},
  {"id": 210, "name": "Nirmal PS", "district": "Nirmal", "latitude": 19.0960, "longitude": 78.3450, "phone": "08734-244455"},
  {"id": 211, "name": "Bhainsa PS", "district": "Nirmal", "latitude": 19.1080, "longitude": 77.9820, "phone": "08734-244456"},
  {"id": 212, "name": "Khanapur PS", "district": "Nirmal", "latitude": 19.0220, "longitude": 78.1580, "phone": "08734-244457"},
  {"id": 213, "name": "Mudhole PS", "district": "Nirmal", "latitude": 19.2580, "longitude": 78.2850, "phone": "08734-244458"},
  {"id": 214, "name": "Laxmanchanda PS", "district": "Nirmal", "latitude": 19.1820, "longitude": 78.4180, "phone": "08734-244459"},
  {"id": 215, "name": "Asifabad PS", "district": "Komaram Bheem", "latitude": 19.3580, "longitude": 79.2820, "phone": "08733-244455"},
  {"id": 216, "name": "Kagaznagar PS", "district": "Komaram Bheem", "latitude": 19.3320, "longitude": 79.4680, "phone": "08733-244456"},
  {"id": 217, "name": "Sirpur PS", "district": "Komaram Bheem", "latitude": 19.4820, "longitude": 79.5850, "phone": "08733-244457"},
  {"id": 218, "name": "Wankidi PS", "district": "Komaram Bheem", "latitude": 19.5280, "longitude": 79.3520, "phone": "08733-244458"},
  {"id": 219, "name": "Nizamabad Town PS", "district": "Nizamabad", "latitude": 18.6700, "longitude": 78.0940, "phone": "08462-244455"},
  {"id": 220, "name": "Armoor PS", "district": "Nizamabad", "latitude": 18.7920, "longitude": 78.2850, "phone": "08462-244456"},
  {"id": 221, "name": "Bodhan PS", "district": "Nizamabad", "latitude": 18.6580, "longitude": 77.8820, "phone": "08462-244457"},
  {"id": 222, "name": "Dichpally PS", "district": "Nizamabad", "latitude": 18.5820, "longitude": 78.0120, "phone": "08462-244458"},
  {"id": 223, "name": "Yellareddy PS", "district": "Nizamabad", "latitude": 18.4520, "longitude": 78.0250, "phone": "08462-244459"},
  {"id": 224, "name": "Kamareddy PS", "district": "Kamareddy", "latitude": 18.3190, "longitude": 78.3340, "phone": "08468-244455"},
  {"id": 225, "name": "Banswada PS", "district": "Kamareddy", "latitude": 18.3820, "longitude": 77.8820, "phone": "08468-244456"},
  {"id": 226, "name": "Bhiknur PS", "district": "Kamareddy", "latitude": 18.4280, "longitude": 78.1580, "phone": "08468-244457"},
  {"id": 227, "name": "Domakonda PS", "district": "Kamareddy", "latitude": 18.3580, "longitude": 78.4850, "phone": "08468-244458"},
  {"id": 228, "name": "Tadwai PS", "district": "Kamareddy", "latitude": 18.1920, "longitude": 78.2280, "phone": "08468-244459"},
  {"id": 229, "name": "Sangareddy Town PS", "district": "Sangareddy", "latitude": 17.6190, "longitude": 78.0820, "phone": "08455-278899"},
  {"id": 230, "name": "Patancheru PS", "district": "Sangareddy", "latitude": 17.5330, "longitude": 78.2650, "phone": "08455-244455"},
  {"id": 231, "name": "Zaheerabad PS", "district": "Sangareddy", "latitude": 17.6810, "longitude": 77.6070, "phone": "08451-252233"},
  {"id": 232, "name": "Narayankhed PS", "district": "Sangareddy", "latitude": 17.6280, "longitude": 77.7850, "phone": "08455-244456"},
  {"id": 233, "name": "Andole PS", "district": "Sangareddy", "latitude": 17.6820, "longitude": 77.7280, "phone": "08455-244457"},
  {"id": 234, "name": "Sadasivpet PS", "district": "Sangareddy", "latitude": 17.6180, "longitude": 77.9520, "phone": "08455-244458"},
  {"id": 235, "name": "Jogipet PS", "district": "Sangareddy", "latitude": 17.7120, "longitude": 78.0150, "phone": "08455-244459"},
  {"id": 236, "name": "Siddipet Town PS", "district": "Siddipet", "latitude": 18.1010, "longitude": 78.8520, "phone": "08457-222100"},
  {"id": 237, "name": "Gajwel PS", "district": "Siddipet", "latitude": 17.8440, "longitude": 78.6830, "phone": "08452-244455"},
  {"id": 238, "name": "Dubbaka PS", "district": "Siddipet", "latitude": 17.9140, "longitude": 78.5270, "phone": "08452-277889"},
  {"id": 239, "name": "Husnabad PS", "district": "Siddipet", "latitude": 18.1280, "longitude": 79.1520, "phone": "08457-244456"},
  {"id": 240, "name": "Cheriyal PS", "district": "Siddipet", "latitude": 18.0680, "longitude": 78.7850, "phone": "08457-244457"},
  {"id": 241, "name": "Medak Town PS", "district": "Medak", "latitude": 18.0450, "longitude": 78.2620, "phone": "08452-222100"},
  {"id": 242, "name": "Narsapur PS", "district": "Medak", "latitude": 17.7620, "longitude": 78.1850, "phone": "08452-244456"},
  {"id": 243, "name": "Toopran PS", "district": "Medak", "latitude": 17.8820, "longitude": 78.3580, "phone": "08452-244457"},
  {"id": 244, "name": "Ramayampet PS", "district": "Medak", "latitude": 18.1280, "longitude": 78.1580, "phone": "08452-244458"},
  {"id": 245, "name": "Alladurgam PS", "district": "Medak", "latitude": 17.9820, "longitude": 78.1020, "phone": "08452-244459"},
  {"id": 246, "name": "Papannapet PS", "district": "Medak", "latitude": 17.9280, "longitude": 78.2280, "phone": "08452-244460"},
  {"id": 247, "name": "Vikarabad Town PS", "district": "Vikarabad", "latitude": 17.3340, "longitude": 77.9040, "phone": "08416-252233"},
  {"id": 248, "name": "Tandur PS", "district": "Vikarabad", "latitude": 17.2420, "longitude": 77.5780, "phone": "08416-244456"},
  {"id": 249, "name": "Pargi PS", "district": "Vikarabad", "latitude": 17.3680, "longitude": 77.7280, "phone": "08416-244457"},
  {"id": 250, "name": "Pudur PS", "district": "Vikarabad", "latitude": 17.4580, "longitude": 77.8520, "phone": "08416-244458"},
  {"id": 251, "name": "Kodangal PS", "district": "Vikarabad", "latitude": 17.1280, "longitude": 77.7020, "phone": "08416-244459"},
  {"id": 252, "name": "Khammam Town PS", "district": "Khammam", "latitude": 17.2470, "longitude": 80.1510, "phone": "08742-244455"},
  {"id": 253, "name": "Madhira PS", "district": "Khammam", "latitude": 17.0280, "longitude": 80.3680, "phone": "08742-244456"},
  {"id": 254, "name": "Wyra PS", "district": "Khammam", "latitude": 17.1980, "longitude": 80.3420, "phone": "08742-244457"},
  {"id": 255, "name": "Nelakondapally PS", "district": "Khammam", "latitude": 17.1020, "longitude": 80.0850, "phone": "08742-244458"},
  {"id": 256, "name": "Tirumalayapalem PS", "district": "Khammam", "latitude": 17.0520, "longitude": 80.2180, "phone": "08742-244459"},
  {"id": 257, "name": "Sathupally PS", "district": "Khammam", "latitude": 17.2580, "longitude": 80.5280, "phone": "08742-244460"},
  {"id": 258, "name": "Kallur PS", "district": "Khammam", "latitude": 17.3820, "longitude": 80.2850, "phone": "08742-244461"},
  {"id": 259, "name": "Kothagudem PS", "district": "Bhadradri", "latitude": 17.5500, "longitude": 80.6120, "phone": "08744-244455"},
  {"id": 260, "name": "Palvancha PS", "district": "Bhadradri", "latitude": 17.5950, "longitude": 80.7080, "phone": "08745-255667"},
  {"id": 261, "name": "Manuguru PS", "district": "Bhadradri", "latitude": 17.9780, "longitude": 80.7520, "phone": "08744-244456"},
  {"id": 262, "name": "Yellandu PS", "district": "Bhadradri", "latitude": 17.5780, "longitude": 80.3280, "phone": "08744-244457"},
  {"id": 263, "name": "Bhadrachalam PS", "district": "Bhadradri", "latitude": 17.6690, "longitude": 80.8940, "phone": "08743-244455"},
  {"id": 264, "name": "Charla PS", "district": "Bhadradri", "latitude": 17.8820, "longitude": 80.6850, "phone": "08744-244458"},
  {"id": 265, "name": "Mahbubabad PS", "district": "Mahabubabad", "latitude": 17.5970, "longitude": 80.0040, "phone": "08719-277889"},
  {"id": 266, "name": "Thorrur PS", "district": "Mahabubabad", "latitude": 17.5180, "longitude": 79.8520, "phone": "08719-277890"},
  {"id": 267, "name": "Maripeda PS", "district": "Mahabubabad", "latitude": 17.4820, "longitude": 80.1080, "phone": "08719-277891"},
  {"id": 268, "name": "Kesamudram PS", "district": "Mahabubabad", "latitude": 17.6820, "longitude": 79.9520, "phone": "08719-277892"},
  {"id": 269, "name": "Mulugu PS", "district": "Mulugu", "latitude": 18.1930, "longitude": 79.9420, "phone": "08714-244455"},
  {"id": 270, "name": "Eturunagaram PS", "district": "Mulugu", "latitude": 18.3280, "longitude": 80.1520, "phone": "08714-244456"},
  {"id": 271, "name": "Govindaraopet PS", "district": "Mulugu", "latitude": 18.2820, "longitude": 79.7850, "phone": "08714-244457"},
  {"id": 272, "name": "Venkatapuram PS", "district": "Mulugu", "latitude": 18.4280, "longitude": 80.0280, "phone": "08714-244458"},
  {"id": 273, "name": "Bhupalpally PS", "district": "Jayashankar", "latitude": 18.4320, "longitude": 79.8620, "phone": "08716-244455"},
  {"id": 274, "name": "Kataram PS", "district": "Jayashankar", "latitude": 18.5280, "longitude": 80.0850, "phone": "08716-244456"},
  {"id": 275, "name": "Mahadevpur PS", "district": "Jayashankar", "latitude": 18.5820, "longitude": 79.9280, "phone": "08716-244457"},
  {"id": 276, "name": "Mutharam PS", "district": "Jayashankar", "latitude": 18.3820, "longitude": 79.7820, "phone": "08716-244458"},
  {"id": 277, "name": "Sircilla PS", "district": "Rajanna Sircilla", "latitude": 18.3850, "longitude": 78.8350, "phone": "08723-244455"},
  {"id": 278, "name": "Vemulawada PS", "district": "Rajanna Sircilla", "latitude": 18.4680, "longitude": 78.8650, "phone": "08723-244456"},
  {"id": 279, "name": "Ellanthakunta PS", "district": "Rajanna Sircilla", "latitude": 18.2820, "longitude": 78.7580, "phone": "08723-244457"},
  {"id": 280, "name": "Rudrangi PS", "district": "Rajanna Sircilla", "latitude": 18.5280, "longitude": 78.7820, "phone": "08723-244458"},
  {"id": 281, "name": "Mahabubnagar Town PS", "district": "Mahabubnagar", "latitude": 16.7370, "longitude": 77.9850, "phone": "08542-242100"},
  {"id": 282, "name": "Jadcherla PS", "district": "Mahabubnagar", "latitude": 16.7630, "longitude": 78.1440, "phone": "08542-244345"},
  {"id": 283, "name": "Koilkonda PS", "district": "Mahabubnagar", "latitude": 16.7820, "longitude": 77.8520, "phone": "08542-244456"},
  {"id": 284, "name": "Devarkadra PS", "district": "Mahabubnagar", "latitude": 16.8580, "longitude": 77.9120, "phone": "08542-244457"},
  {"id": 285, "name": "Addakal PS", "district": "Mahabubnagar", "latitude": 16.5280, "longitude": 78.0520, "phone": "08542-244458"},
  {"id": 286, "name": "Wanaparthy PS", "district": "Wanaparthy", "latitude": 16.3670, "longitude": 78.0620, "phone": "08546-244455"},
  {"id": 287, "name": "Pebbair PS", "district": "Wanaparthy", "latitude": 16.4820, "longitude": 78.1280, "phone": "08546-244456"},
  {"id": 288, "name": "Gopalpet PS", "district": "Wanaparthy", "latitude": 16.2820, "longitude": 77.8920, "phone": "08546-244457"},
  {"id": 289, "name": "Srirangapur PS", "district": "Wanaparthy", "latitude": 16.4280, "longitude": 77.9580, "phone": "08546-244458"},
  {"id": 290, "name": "Nagarkurnool PS", "district": "Nagarkurnool", "latitude": 16.4810, "longitude": 78.3130, "phone": "08540-244455"},
  {"id": 291, "name": "Achampet PS", "district": "Nagarkurnool", "latitude": 16.3820, "longitude": 78.4280, "phone": "08540-244456"},
  {"id": 292, "name": "Kalwakurthy PS", "district": "Nagarkurnool", "latitude": 16.6820, "longitude": 78.5120, "phone": "08540-244457"},
  {"id": 293, "name": "Kollapur PS", "district": "Nagarkurnool", "latitude": 16.1280, "longitude": 78.3050, "phone": "08540-244458"},
  {"id": 294, "name": "Gadwal PS", "district": "Jogulamba Gadwal", "latitude": 16.2350, "longitude": 77.8050, "phone": "08543-244455"},
  {"id": 295, "name": "Alampur PS", "district": "Jogulamba Gadwal", "latitude": 15.8820, "longitude": 78.1280, "phone": "08543-244456"},
  {"id": 296, "name": "Ieeja PS", "district": "Jogulamba Gadwal", "latitude": 16.0820, "longitude": 77.7520, "phone": "08543-244457"},
  {"id": 297, "name": "Ghattu PS", "district": "Jogulamba Gadwal", "latitude": 16.3280, "longitude": 77.6820, "phone": "08543-244458"},
  {"id": 298, "name": "Narayanpet PS", "district": "Narayanpet", "latitude": 16.7440, "longitude": 77.4940, "phone": "08500-244455"},
  {"id": 299, "name": "Makthal PS", "district": "Narayanpet", "latitude": 16.5020, "longitude": 77.5820, "phone": "08500-244456"},
  {"id": 300, "name": "Damaragidda PS", "district": "Narayanpet", "latitude": 16.5820, "longitude": 77.3820, "phone": "08500-244457"},
  {"id": 301, "name": "Krishnapet PS", "district": "Narayanpet", "latitude": 16.6280, "longitude": 77.5280, "phone": "08500-244458"},
  {"id": 302, "name": "Kompally PS", "district": "Cyberabad", "latitude": 17.5540, "longitude": 78.4880, "phone": "040-27931234"},
  {"id": 303, "name": "Kapra PS", "district": "Malkajgiri", "latitude": 17.4860, "longitude": 78.5480, "phone": "040-27191234"},
  {"id": 304, "name": "Kondapur PS", "district": "Cyberabad", "latitude": 17.4600, "longitude": 78.3620, "phone": "040-23125678"},
  {"id": 305, "name": "Somajiguda PS", "district": "Hyderabad North", "latitude": 17.4270, "longitude": 78.4670, "phone": "040-23409012"},
  {"id": 306, "name": "Lakdikapul PS", "district": "Hyderabad", "latitude": 17.4010, "longitude": 78.4680, "phone": "040-23233456"}
]
