[
  {"id": 1, "name": "Gachibowli PS", "district": "Cyberabad", "latitude": 17.4401, "longitude": 78.3489, "phone": "040-2785-5500"},
  {"id": 2, "name": "Madhapur PS", "district": "Cyberabad", "latitude": 17.4486, "longitude": 78.3908, "phone": "040-2311-2345"},
  {"id": 3, "name": "Banjara Hills PS", "district": "Hyderabad", "latitude": 17.4156, "longitude": 78.4347, "phone": "040-2339-8765"},
  {"id": 4, "name": "Begumpet PS", "district": "Hyderabad", "latitude": 17.4432, "longitude": 78.4675, "phone": "040-2776-5432"},
  {"id": 5, "name": "Kukatpally PS", "district": "Cyberabad", "latitude": 17.4849, "longitude": 78.4138, "phone": "040-2305-6789"},
  {"id": 6, "name": "Miyapur PS", "district": "Cyberabad", "latitude": 17.4969, "longitude": 78.3544, "phone": "040-2304-1234"},
  {"id": 7, "name": "Kondapur PS", "district": "Cyberabad", "latitude": 17.4600, "longitude": 78.3620, "phone": "040-2312-5678"},
  {"id": 8, "name": "Raidurgam PS", "district": "Cyberabad", "latitude": 17.4270, "longitude": 78.3870, "phone": "040-2313-9012"},
  {"id": 9, "name": "Jubilee Hills PS", "district": "Hyderabad", "latitude": 17.4320, "longitude": 78.4070, "phone": "040-2354-3456"},
  {"id": 10, "name": "SR Nagar PS", "district": "Hyderabad", "latitude": 17.4410, "longitude": 78.4500, "phone": "040-2371-7890"},
  {"id": 11, "name": "Punjagutta PS", "district": "Hyderabad", "latitude": 17.4280, "longitude": 78.4510, "phone": "040-2340-1234"},
  {"id": 12, "name": "Ameerpet PS", "district": "Hyderabad", "latitude": 17.4370, "longitude": 78.4480, "phone": "040-2373-5678"},
  {"id": 13, "name": "Somajiguda PS", "district": "Hyderabad", "latitude": 17.4270, "longitude": 78.4670, "phone": "040-2340-9012"},
  {"id": 14, "name": "Lakdikapul PS", "district": "Hyderabad", "latitude": 17.4010, "longitude": 78.4680, "phone": "040-2323-3456"},
  {"id": 15, "name": "Nampally PS", "district": "Hyderabad", "latitude": 17.3920, "longitude": 78.4730, "phone": "040-2320-7890"},
  {"id": 16, "name": "Abids PS", "district": "Hyderabad", "latitude": 17.3940, "longitude": 78.4760, "phone": "040-2475-1234"},
  {"id": 17, "name": "Sultan Bazar PS", "district": "Hyderabad", "latitude": 17.3880, "longitude": 78.4820, "phone": "040-2461-5678"},
  {"id": 18, "name": "Koti PS", "district": "Hyderabad", "latitude": 17.3850, "longitude": 78.4870, "phone": "040-2465-9012"},
  {"id": 19, "name": "Chaderghat PS", "district": "Hyderabad", "latitude": 17.3730, "longitude": 78.4860, "phone": "040-2458-3456"},
  {"id": 20, "name": "Malakpet PS", "district": "Hyderabad", "latitude": 17.3680, "longitude": 78.4960, "phone": "040-2457-7890"},
  {"id": 21, "name": "Santosh Nagar PS", "district": "Hyderabad", "latitude": 17.3550, "longitude": 78.5070, "phone": "040-2440-1234"},
  {"id": 22, "name": "Saidabad PS", "district": "Hyderabad", "latitude": 17.3620, "longitude": 78.5130, "phone": "040-2444-5678"},
  {"id": 23, "name": "Chandrayangutta PS", "district": "Hyderabad", "latitude": 17.3350, "longitude": 78.4970, "phone": "040-2444-9012"},
  {"id": 24, "name": "Falaknuma PS", "district": "Hyderabad", "latitude": 17.3270, "longitude": 78.4650, "phone": "040-2457-3456"},
  {"id": 25, "name": "Charminar PS", "district": "Hyderabad", "latitude": 17.3616, "longitude": 78.4747, "phone": "040-2452-7890"},
  {"id": 26, "name": "Shahalibanda PS", "district": "Hyderabad", "latitude": 17.3680, "longitude": 78.4710, "phone": "040-2452-1234"},
  {"id": 27, "name": "Kalapathar PS", "district": "Hyderabad", "latitude": 17.3780, "longitude": 78.4660, "phone": "040-2457-5678"},
  {"id": 28, "name": "Goshamahal PS", "district": "Hyderabad", "latitude": 17.3920, "longitude": 78.4590, "phone": "040-2323-9012"},
  {"id": 29, "name": "Narayanguda PS", "district": "Hyderabad", "latitude": 17.3980, "longitude": 78.4860, "phone": "040-2760-3456"},
  {"id": 30, "name": "Himayatnagar PS", "district": "Hyderabad", "latitude": 17.4080, "longitude": 78.4870, "phone": "040-2760-7890"},
  {"id": 31, "name": "Khairatabad PS", "district": "Hyderabad", "latitude": 17.4120, "longitude": 78.4560, "phone": "040-2323-1234"},
  {"id": 32, "name": "Saifabad PS", "district": "Hyderabad", "latitude": 17.4080, "longitude": 78.4720, "phone": "040-2323-5678"},
  {"id": 33, "name": "Secunderabad PS", "district": "Secunderabad", "latitude": 17.4399, "longitude": 78.4983, "phone": "040-2770-9012"},
  {"id": 34, "name": "Market PS", "district": "Secunderabad", "latitude": 17.4360, "longitude": 78.4920, "phone": "040-2780-3456"},
  {"id": 35, "name": "Trimulgherry PS", "district": "Secunderabad", "latitude": 17.4680, "longitude": 78.4880, "phone": "040-2779-7890"},
  {"id": 36, "name": "Tirumalagiri PS", "district": "Secunderabad", "latitude": 17.4780, "longitude": 78.5010, "phone": "040-2710-1234"},
  {"id": 37, "name": "Malkajgiri PS", "district": "Rachakonda", "latitude": 17.4520, "longitude": 78.5270, "phone": "040-2720-5678"},
  {"id": 38, "name": "Uppal PS", "district": "Rachakonda", "latitude": 17.4040, "longitude": 78.5590, "phone": "040-2717-9012"},
  {"id": 39, "name": "LB Nagar PS", "district": "Rachakonda", "latitude": 17.3480, "longitude": 78.5480, "phone": "040-2408-3456"},
  {"id": 40, "name": "Vanasthalipuram PS", "district": "Rachakonda", "latitude": 17.3250, "longitude": 78.5510, "phone": "040-2403-7890"},
  {"id": 41, "name": "Hayathnagar PS", "district": "Rachakonda", "latitude": 17.3200, "longitude": 78.5890, "phone": "040-2400-1234"},
  {"id": 42, "name": "Meerpet PS", "district": "Rachakonda", "latitude": 17.3080, "longitude": 78.5250, "phone": "040-2400-5678"},
  {"id": 43, "name": "Saroornagar PS", "district": "Rachakonda", "latitude": 17.3280, "longitude": 78.5180, "phone": "040-2409-9012"},
  {"id": 44, "name": "Nagole PS", "district": "Rachakonda", "latitude": 17.3850, "longitude": 78.5560, "phone": "040-2712-3456"},
  {"id": 45, "name": "Neredmet PS", "district": "Rachakonda", "latitude": 17.4740, "longitude": 78.5330, "phone": "040-2719-7890"},
  {"id": 46, "name": "Kapra PS", "district": "Rachakonda", "latitude": 17.4860, "longitude": 78.5480, "phone": "040-2719-1234"},
  {"id": 47, "name": "Ghatkesar PS", "district": "Rachakonda", "latitude": 17.4510, "longitude": 78.6870, "phone": "040-2940-5678"},
  {"id": 48, "name": "Pocharam PS", "district": "Rachakonda", "latitude": 17.4780, "longitude": 78.6340, "phone": "040-2940-9012"},
  {"id": 49, "name": "Keesara PS", "district": "Rachakonda", "latitude": 17.5210, "longitude": 78.5890, "phone": "040-2941-3456"},
  {"id": 50, "name": "Petbasheerabad PS", "district": "Cyberabad", "latitude": 17.5320, "longitude": 78.4370, "phone": "040-2304-7890"},
  {"id": 51, "name": "Alwal PS", "district": "Cyberabad", "latitude": 17.5010, "longitude": 78.4920, "phone": "040-2712-1234"},
  {"id": 52, "name": "Balanagar PS", "district": "Cyberabad", "latitude": 17.4780, "longitude": 78.4420, "phone": "040-2302-5678"},
  {"id": 53, "name": "Jeedimetla PS", "district": "Cyberabad", "latitude": 17.5120, "longitude": 78.4610, "phone": "040-2302-9012"},
  {"id": 54, "name": "Dundigal PS", "district": "Cyberabad", "latitude": 17.5630, "longitude": 78.4280, "phone": "040-2302-3456"},
  {"id": 55, "name": "Medchal PS", "district": "Cyberabad", "latitude": 17.6290, "longitude": 78.4810, "phone": "040-2793-7890"},
  {"id": 56, "name": "Kompally PS", "district": "Cyberabad", "latitude": 17.5540, "longitude": 78.4880, "phone": "040-2793-1234"},
  {"id": 57, "name": "Shamirpet PS", "district": "Cyberabad", "latitude": 17.6130, "longitude": 78.5610, "phone": "040-2794-5678"},
  {"id": 58, "name": "Jadcherla PS", "district": "Mahabubnagar", "latitude": 16.7630, "longitude": 78.1440, "phone": "08542-244345"},
  {"id": 59, "name": "Mahabubnagar Town PS", "district": "Mahabubnagar", "latitude": 16.7370, "longitude": 77.9850, "phone": "08542-242100"},
  {"id": 60, "name": "Shadnagar PS", "district": "Mahabubnagar", "latitude": 17.0670, "longitude": 78.2010, "phone": "08548-252233"},
  {"id": 61, "name": "Kothur PS", "district": "Mahabubnagar", "latitude": 17.1180, "longitude": 78.1350, "phone": "08548-256677"},
  {"id": 62, "name": "Chevella PS", "district": "Rangareddy", "latitude": 17.3090, "longitude": 78.1350, "phone": "08413-252233"},
  {"id": 63, "name": "Shamshabad PS", "district": "Rangareddy", "latitude": 17.2400, "longitude": 78.4290, "phone": "08413-257788"},
  {"id": 64, "name": "Rajendranagar PS", "district": "Rangareddy", "latitude": 17.3100, "longitude": 78.4150, "phone": "040-2402-3344"},
  {"id": 65, "name": "Narsingi PS", "district": "Cyberabad", "latitude": 17.3850, "longitude": 78.3590, "phone": "040-2314-5566"},
  {"id": 66, "name": "Mokila PS", "district": "Cyberabad", "latitude": 17.3950, "longitude": 78.2770, "phone": "040-2314-7788"},
  {"id": 67, "name": "Patancheru PS", "district": "Sangareddy", "latitude": 17.5330, "longitude": 78.2650, "phone": "08455-244455"},
  {"id": 68, "name": "Sangareddy Town PS", "district": "Sangareddy", "latitude": 17.6190, "longitude": 78.0820, "phone": "08455-278899"},
  {"id": 69, "name": "Zaheerabad PS", "district": "Sangareddy", "latitude": 17.6810, "longitude": 77.6070, "phone": "08451-252233"},
  {"id": 70, "name": "Siddipet Town PS", "district": "Siddipet", "latitude": 18.1010, "longitude": 78.8520, "phone": "08457-222100"},
  {"id": 71, "name": "Gajwel PS", "district": "Siddipet", "latitude": 17.8440, "longitude": 78.6830, "phone": "08452-244455"},
  {"id": 72, "name": "Dubbaka PS", "district": "Siddipet", "latitude": 17.9140, "longitude": 78.5270, "phone": "08452-277889"},
  {"id": 73, "name": "Warangal City PS", "district": "Warangal Urban", "latitude": 17.9780, "longitude": 79.5970, "phone": "0870-2578899"},
  {"id": 74, "name": "Hanamkonda PS", "district": "Warangal Urban", "latitude": 18.0060, "longitude": 79.5610, "phone": "0870-2578800"},
  {"id": 75, "name": "Kazipet PS", "district": "Warangal Urban", "latitude": 17.9600, "longitude": 79.5320, "phone": "0870-2570011"},
  {"id": 76, "name": "Jangaon PS", "district": "Jangaon", "latitude": 17.7200, "longitude": 79.1580, "phone": "08719-252233"},
  {"id": 77, "name": "Suryapet Town PS", "district": "Suryapet", "latitude": 17.1380, "longitude": 79.6270, "phone": "08684-252233"},
  {"id": 78, "name": "Nalgonda Town PS", "district": "Nalgonda", "latitude": 17.0500, "longitude": 79.2670, "phone": "08682-233455"},
  {"id": 79, "name": "Miryalaguda PS", "district": "Nalgonda", "latitude": 16.8740, "longitude": 79.5650, "phone": "08689-222344"},
  {"id": 80, "name": "Bhongir PS", "district": "Yadadri", "latitude": 17.5140, "longitude": 78.8820, "phone": "08685-252233"},
  {"id": 81, "name": "Raigir PS", "district": "Yadadri", "latitude": 17.5870, "longitude": 78.9610, "phone": "08685-278899"},
  {"id": 82, "name": "Karimnagar Town PS", "district": "Karimnagar", "latitude": 18.4350, "longitude": 79.1290, "phone": "0878-2244556"},
  {"id": 83, "name": "Huzurabad PS", "district": "Karimnagar", "latitude": 18.1970, "longitude": 79.3990, "phone": "08727-255667"},
  {"id": 84, "name": "Jagtial PS", "district": "Jagtial", "latitude": 18.7900, "longitude": 78.9140, "phone": "08724-244455"},
  {"id": 85, "name": "Peddapalli PS", "district": "Peddapalli", "latitude": 18.6130, "longitude": 79.3830, "phone": "08752-244455"},
  {"id": 86, "name": "Ramagundam PS", "district": "Peddapalli", "latitude": 18.7550, "longitude": 79.4740, "phone": "08728-244455"},
  {"id": 87, "name": "Mancherial PS", "district": "Mancherial", "latitude": 18.8680, "longitude": 79.4380, "phone": "08736-244455"},
  {"id": 88, "name": "Bellampalli PS", "district": "Mancherial", "latitude": 19.0560, "longitude": 79.4930, "phone": "08738-255667"},
  {"id": 89, "name": "Adilabad Town PS", "district": "Adilabad", "latitude": 19.6640, "longitude": 78.5320, "phone": "08732-244455"},
  {"id": 90, "name": "Nirmal PS", "district": "Nirmal", "latitude": 19.0960, "longitude": 78.3450, "phone": "08734-244455"},
  {"id": 91, "name": "Nizamabad Town PS", "district": "Nizamabad", "latitude": 18.6700, "longitude": 78.0940, "phone": "08462-244455"},
  {"id": 92, "name": "Kamareddy PS", "district": "Kamareddy", "latitude": 18.3190, "longitude": 78.3340, "phone": "08468-244455"},
  {"id": 93, "name": "Khammam Town PS", "district": "Khammam", "latitude": 17.2470, "longitude": 80.1510, "phone": "08742-244455"},
  {"id": 94, "name": "Kothagudem PS", "district": "Bhadradri", "latitude": 17.5500, "longitude": 80.6120, "phone": "08744-244455"},
  {"id": 95, "name": "Palvancha PS", "district": "Bhadradri", "latitude": 17.5950, "longitude": 80.7080, "phone": "08745-255667"},
  {"id": 96, "name": "Mahbubabad PS", "district": "Mahbubabad", "latitude": 17.5970, "longitude": 80.0040, "phone": "08719-277889"},
  {"id": 97, "name": "Mulugu PS", "district": "Mulugu", "latitude": 18.1930, "longitude": 79.9420, "phone": "08714-244455"},
  {"id": 98, "name": "Bhadrachalam PS", "district": "Bhadradri", "latitude": 17.6690, "longitude": 80.8940, "phone": "08743-244455"},
  {"id": 99, "name": "Wanaparthy PS", "district": "Wanaparthy", "latitude": 16.3670, "longitude": 78.0620, "phone": "08546-244455"},
  {"id": 100, "name": "Nagarkurnool PS", "district": "Nagarkurnool", "latitude": 16.4810, "longitude": 78.3130, "phone": "08540-244455"}
]
