[
  {"id": 1, "name": "Saifabad PS", "district": "Hyderabad", "zone": "Central Zone", "commissionerate": "Hyderabad", "latitude": 17.4156, "longitude": 78.4747, "phone": "9490616201"},
  {"id": 2, "name": "Nampally PS", "district": "Hyderabad", "zone": "Central Zone", "commissionerate": "Hyderabad", "latitude": 17.3850, "longitude": 78.4867, "phone": "9490616202"},
  {"id": 3, "name": "Ramgopalpet PS", "district": "Hyderabad", "zone": "Central Zone", "commissionerate": "Hyderabad", "latitude": 17.3920, "longitude": 78.4820, "phone": "9490616203"},
  {"id": 4, "name": "Abids PS", "district": "Hyderabad", "zone": "Central Zone", "commissionerate": "Hyderabad", "latitude": 17.3930, "longitude": 78.4760, "phone": "9490616204"},
  {"id": 5, "name": "Narayanguda PS", "district": "Hyderabad", "zone": "Central Zone", "commissionerate": "Hyderabad", "latitude": 17.3950, "longitude": 78.4890, "phone": "9490616205"},
  {"id": 6, "name": "Begum Bazar PS", "district": "Hyderabad", "zone": "Central Zone", "commissionerate": "Hyderabad", "latitude": 17.3820, "longitude": 78.4730, "phone": "9490616310"},
  {"id": 7, "name": "Chikkadpally PS", "district": "Hyderabad", "zone": "Central Zone", "commissionerate": "Hyderabad", "latitude": 17.4010, "longitude": 78.4920, "phone": "9490616206"},
  {"id": 8, "name": "Musheerabad PS", "district": "Hyderabad", "zone": "Central Zone", "commissionerate": "Hyderabad", "latitude": 17.4080, "longitude": 78.4950, "phone": "9490616207"},
  {"id": 9, "name": "Gandhi Nagar PS", "district": "Hyderabad", "zone": "Central Zone", "commissionerate": "Hyderabad", "latitude": 17.4020, "longitude": 78.5010, "phone": "9490616208"},
  {"id": 10, "name": "Kachiguda PS", "district": "Hyderabad", "zone": "Central Zone", "commissionerate": "Hyderabad", "latitude": 17.3940, "longitude": 78.5020, "phone": "9490616209"},
  {"id": 11, "name": "Nallakunta PS", "district": "Hyderabad", "zone": "Central Zone", "commissionerate": "Hyderabad", "latitude": 17.4100, "longitude": 78.4980, "phone": "9490616210"},
  {"id": 12, "name": "OU PS", "district": "Hyderabad", "zone": "Central Zone", "commissionerate": "Hyderabad", "latitude": 17.4150, "longitude": 78.5200, "phone": "9490616211"},
  {"id": 13, "name": "Malakpet PS", "district": "Hyderabad", "zone": "Central Zone", "commissionerate": "Hyderabad", "latitude": 17.3770, "longitude": 78.5020, "phone": "9490616212"},
  {"id": 14, "name": "Saidabad PS", "district": "Hyderabad", "zone": "Central Zone", "commissionerate": "Hyderabad", "latitude": 17.3650, "longitude": 78.5080, "phone": "9490616213"},
  {"id": 15, "name": "Amberpet PS", "district": "Hyderabad", "zone": "Central Zone", "commissionerate": "Hyderabad", "latitude": 17.3900, "longitude": 78.5150, "phone": "9490616381"},
  {"id": 16, "name": "Sultan Bazar PS", "district": "Hyderabad", "zone": "Central Zone", "commissionerate": "Hyderabad", "latitude": 17.3880, "longitude": 78.4830, "phone": "9490616214"},
  {"id": 17, "name": "Chaderghat PS", "district": "Hyderabad", "zone": "Central Zone", "commissionerate": "Hyderabad", "latitude": 17.3720, "longitude": 78.4920, "phone": "9490616215"},
  {"id": 18, "name": "Afzalgunj PS", "district": "Hyderabad", "zone": "Central Zone", "commissionerate": "Hyderabad", "latitude": 17.3680, "longitude": 78.4760, "phone": "9490616248"},
  {"id": 19, "name": "Domalguda PS", "district": "Hyderabad", "zone": "Central Zone", "commissionerate": "Hyderabad", "latitude": 17.4050, "longitude": 78.4810, "phone": "9490616216"},
  {"id": 20, "name": "Warasiguda PS", "district": "Hyderabad", "zone": "Central Zone", "commissionerate": "Hyderabad", "latitude": 17.4200, "longitude": 78.5100, "phone": "9490616217"},
  {"id": 21, "name": "Gopalapuram PS", "district": "Hyderabad", "zone": "East Zone", "commissionerate": "Hyderabad", "latitude": 17.4350, "longitude": 78.4950, "phone": "9490616301"},
  {"id": 22, "name": "Chilkalguda PS", "district": "Hyderabad", "zone": "East Zone", "commissionerate": "Hyderabad", "latitude": 17.4280, "longitude": 78.5020, "phone": "9490616302"},
  {"id": 23, "name": "Lalaguda PS", "district": "Hyderabad", "zone": "East Zone", "commissionerate": "Hyderabad", "latitude": 17.4350, "longitude": 78.5150, "phone": "9490616303"},
  {"id": 24, "name": "Tukaramgate PS", "district": "Hyderabad", "zone": "East Zone", "commissionerate": "Hyderabad", "latitude": 17.4100, "longitude": 78.5050, "phone": "9490616304"},
  {"id": 25, "name": "Mahankali PS", "district": "Hyderabad", "zone": "East Zone", "commissionerate": "Hyderabad", "latitude": 17.4380, "longitude": 78.4980, "phone": "9490616305"},
  {"id": 26, "name": "Market PS", "district": "Hyderabad", "zone": "East Zone", "commissionerate": "Hyderabad", "latitude": 17.4420, "longitude": 78.4920, "phone": "9490616306"},
  {"id": 27, "name": "Marredpally PS", "district": "Hyderabad", "zone": "East Zone", "commissionerate": "Hyderabad", "latitude": 17.4480, "longitude": 78.5030, "phone": "9490616307"},
  {"id": 28, "name": "Karkhana PS", "district": "Hyderabad", "zone": "East Zone", "commissionerate": "Hyderabad", "latitude": 17.4620, "longitude": 78.4920, "phone": "9490616308"},
  {"id": 29, "name": "Malkajgiri PS", "district": "Hyderabad", "zone": "East Zone", "commissionerate": "Hyderabad", "latitude": 17.4550, "longitude": 78.5200, "phone": "9490616309"},
  {"id": 30, "name": "Begumpet PS", "district": "Hyderabad", "zone": "North Zone", "commissionerate": "Hyderabad", "latitude": 17.4410, "longitude": 78.4650, "phone": "9490616419"},
  {"id": 31, "name": "Bowenpally PS", "district": "Hyderabad", "zone": "North Zone", "commissionerate": "Hyderabad", "latitude": 17.4620, "longitude": 78.4780, "phone": "9490616401"},
  {"id": 32, "name": "Bollaram PS", "district": "Hyderabad", "zone": "North Zone", "commissionerate": "Hyderabad", "latitude": 17.5150, "longitude": 78.4350, "phone": "9490616402"},
  {"id": 33, "name": "Trimulgherry PS", "district": "Hyderabad", "zone": "North Zone", "commissionerate": "Hyderabad", "latitude": 17.4920, "longitude": 78.4680, "phone": "9490616403"},
  {"id": 34, "name": "Alwal PS", "district": "Hyderabad", "zone": "North Zone", "commissionerate": "Hyderabad", "latitude": 17.5050, "longitude": 78.4950, "phone": "9490616404"},
  {"id": 35, "name": "Charminar PS", "district": "Hyderabad", "zone": "South Zone", "commissionerate": "Hyderabad", "latitude": 17.3616, "longitude": 78.4747, "phone": "9490616501"},
  {"id": 36, "name": "Bahadurpura PS", "district": "Hyderabad", "zone": "South Zone", "commissionerate": "Hyderabad", "latitude": 17.3520, "longitude": 78.4650, "phone": "9490616478"},
  {"id": 37, "name": "Kalapathar PS", "district": "Hyderabad", "zone": "South Zone", "commissionerate": "Hyderabad", "latitude": 17.3580, "longitude": 78.4720, "phone": "9490616502"},
  {"id": 38, "name": "Kamatipura PS", "district": "Hyderabad", "zone": "South Zone", "commissionerate": "Hyderabad", "latitude": 17.3650, "longitude": 78.4680, "phone": "9490616503"},
  {"id": 39, "name": "Hussainialam PS", "district": "Hyderabad", "zone": "South Zone", "commissionerate": "Hyderabad", "latitude": 17.3680, "longitude": 78.4720, "phone": "9490616504"},
  {"id": 40, "name": "Mirchowk PS", "district": "Hyderabad", "zone": "South Zone", "commissionerate": "Hyderabad", "latitude": 17.3550, "longitude": 78.4780, "phone": "9490616505"},
  {"id": 41, "name": "Moghalpura PS", "district": "Hyderabad", "zone": "South Zone", "commissionerate": "Hyderabad", "latitude": 17.3480, "longitude": 78.4820, "phone": "9490616506"},
  {"id": 42, "name": "Dabeerpura PS", "district": "Hyderabad", "zone": "South Zone", "commissionerate": "Hyderabad", "latitude": 17.3620, "longitude": 78.4850, "phone": "9490616507"},
  {"id": 43, "name": "Rein Bazar PS", "district": "Hyderabad", "zone": "South Zone", "commissionerate": "Hyderabad", "latitude": 17.3700, "longitude": 78.4780, "phone": "9490616508"},
  {"id": 44, "name": "Falaknuma PS", "district": "Hyderabad", "zone": "South Zone", "commissionerate": "Hyderabad", "latitude": 17.3280, "longitude": 78.4650, "phone": "9490616509"},
  {"id": 45, "name": "Chandrayangutta PS", "district": "Hyderabad", "zone": "South Zone", "commissionerate": "Hyderabad", "latitude": 17.3150, "longitude": 78.4920, "phone": "9490616510"},
  {"id": 46, "name": "Shahalibanda PS", "district": "Hyderabad", "zone": "South Zone", "commissionerate": "Hyderabad", "latitude": 17.3380, "longitude": 78.4780, "phone": "9490616511"},
  {"id": 47, "name": "Chatrinaka PS", "district": "Hyderabad", "zone": "South Zone", "commissionerate": "Hyderabad", "latitude": 17.3420, "longitude": 78.4850, "phone": "9490616512"},
  {"id": 48, "name": "Santosh Nagar PS", "district": "Hyderabad", "zone": "South Zone", "commissionerate": "Hyderabad", "latitude": 17.3550, "longitude": 78.5050, "phone": "9490616513"},
  {"id": 49, "name": "Madannapet PS", "district": "Hyderabad", "zone": "South Zone", "commissionerate": "Hyderabad", "latitude": 17.3680, "longitude": 78.5150, "phone": "9490616514"},
  {"id": 50, "name": "Bhavani Nagar PS", "district": "Hyderabad", "zone": "South Zone", "commissionerate": "Hyderabad", "latitude": 17.3450, "longitude": 78.5080, "phone": "9490616534"},
  {"id": 51, "name": "Kanchanbagh PS", "district": "Hyderabad", "zone": "South Zone", "commissionerate": "Hyderabad", "latitude": 17.3520, "longitude": 78.4950, "phone": "9490616515"},
  {"id": 52, "name": "Asif Nagar PS", "district": "Hyderabad", "zone": "West Zone", "commissionerate": "Hyderabad", "latitude": 17.4020, "longitude": 78.4550, "phone": "9490616601"},
  {"id": 53, "name": "Humayun Nagar PS", "district": "Hyderabad", "zone": "West Zone", "commissionerate": "Hyderabad", "latitude": 17.3980, "longitude": 78.4480, "phone": "9490616602"},
  {"id": 54, "name": "Golconda PS", "district": "Hyderabad", "zone": "West Zone", "commissionerate": "Hyderabad", "latitude": 17.3830, "longitude": 78.4010, "phone": "9490616603"},
  {"id": 55, "name": "Langer House PS", "district": "Hyderabad", "zone": "West Zone", "commissionerate": "Hyderabad", "latitude": 17.3750, "longitude": 78.4280, "phone": "9490616604"},
  {"id": 56, "name": "Tappachabutra PS", "district": "Hyderabad", "zone": "West Zone", "commissionerate": "Hyderabad", "latitude": 17.3680, "longitude": 78.4350, "phone": "9490616605"},
  {"id": 57, "name": "Shahinayathgunj PS", "district": "Hyderabad", "zone": "West Zone", "commissionerate": "Hyderabad", "latitude": 17.3950, "longitude": 78.4620, "phone": "9490616606"},
  {"id": 58, "name": "Habeeb Nagar PS", "district": "Hyderabad", "zone": "West Zone", "commissionerate": "Hyderabad", "latitude": 17.3880, "longitude": 78.4480, "phone": "9490616607"},
  {"id": 59, "name": "Mangalhat PS", "district": "Hyderabad", "zone": "West Zone", "commissionerate": "Hyderabad", "latitude": 17.4050, "longitude": 78.4580, "phone": "9490616608"},
  {"id": 60, "name": "Kulsumpura PS", "district": "Hyderabad", "zone": "West Zone", "commissionerate": "Hyderabad", "latitude": 17.3920, "longitude": 78.4350, "phone": "9490616609"},
  {"id": 61, "name": "Banjara Hills PS", "district": "Hyderabad", "zone": "West Zone", "commissionerate": "Hyderabad", "latitude": 17.4120, "longitude": 78.4350, "phone": "9490616610"},
  {"id": 62, "name": "Jubilee Hills PS", "district": "Hyderabad", "zone": "West Zone", "commissionerate": "Hyderabad", "latitude": 17.4320, "longitude": 78.4150, "phone": "9490616611"},
  {"id": 63, "name": "Panjagutta PS", "district": "Hyderabad", "zone": "West Zone", "commissionerate": "Hyderabad", "latitude": 17.4280, "longitude": 78.4510, "phone": "9490616612"},
  {"id": 64, "name": "SR Nagar PS", "district": "Hyderabad", "zone": "West Zone", "commissionerate": "Hyderabad", "latitude": 17.4380, "longitude": 78.4420, "phone": "9490616613"},
  {"id": 65, "name": "Film Nagar PS", "district": "Hyderabad", "zone": "West Zone", "commissionerate": "Hyderabad", "latitude": 17.4180, "longitude": 78.4080, "phone": "9490616614"},
  {"id": 66, "name": "Borabanda PS", "district": "Hyderabad", "zone": "West Zone", "commissionerate": "Hyderabad", "latitude": 17.4450, "longitude": 78.4280, "phone": "9490616615"},
  {"id": 67, "name": "Khairatabad PS", "district": "Hyderabad", "zone": "West Zone", "commissionerate": "Hyderabad", "latitude": 17.4080, "longitude": 78.4520, "phone": "9490616616"},
  {"id": 68, "name": "Sanath Nagar PS", "district": "Hyderabad", "zone": "West Zone", "commissionerate": "Hyderabad", "latitude": 17.4550, "longitude": 78.4380, "phone": "9490616617"},
  {"id": 69, "name": "Lake Police PS", "district": "Hyderabad", "zone": "West Zone", "commissionerate": "Hyderabad", "latitude": 17.4200, "longitude": 78.4680, "phone": "9490616618"},
  {"id": 70, "name": "Rajendranagar PS", "district": "Hyderabad", "zone": "South West", "commissionerate": "Hyderabad", "latitude": 17.3150, "longitude": 78.4080, "phone": "9490616701"},
  {"id": 71, "name": "Attapur PS", "district": "Hyderabad", "zone": "South West", "commissionerate": "Hyderabad", "latitude": 17.3580, "longitude": 78.4180, "phone": "9490616702"},
  {"id": 72, "name": "Mailardevpally PS", "district": "Hyderabad", "zone": "South West", "commissionerate": "Hyderabad", "latitude": 17.3280, "longitude": 78.3950, "phone": "9490616703"},
  {"id": 73, "name": "Bandlaguda PS", "district": "Hyderabad", "zone": "South West", "commissionerate": "Hyderabad", "latitude": 17.3350, "longitude": 78.3850, "phone": "9490616704"},
  {"id": 74, "name": "RGIA PS", "district": "Hyderabad", "zone": "Airport", "commissionerate": "Hyderabad", "latitude": 17.2403, "longitude": 78.4294, "phone": "9490616801"},
  {"id": 75, "name": "Adibatla PS", "district": "Hyderabad", "zone": "South East", "commissionerate": "Hyderabad", "latitude": 17.2680, "longitude": 78.5350, "phone": "9490616802"},
  {"id": 76, "name": "Balapur PS", "district": "Hyderabad", "zone": "South East", "commissionerate": "Hyderabad", "latitude": 17.3020, "longitude": 78.5180, "phone": "9490616803"},
  {"id": 77, "name": "Badangpet PS", "district": "Hyderabad", "zone": "South East", "commissionerate": "Hyderabad", "latitude": 17.3150, "longitude": 78.5350, "phone": "9490616804"},
  {"id": 78, "name": "Pahadi Shareef PS", "district": "Hyderabad", "zone": "South East", "commissionerate": "Hyderabad", "latitude": 17.2950, "longitude": 78.5450, "phone": "9490616805"},
  {"id": 79, "name": "Meerpet PS", "district": "Hyderabad", "zone": "South East", "commissionerate": "Hyderabad", "latitude": 17.3280, "longitude": 78.5280, "phone": "9490616806"},
  {"id": 80, "name": "Saroornagar PS", "district": "Hyderabad", "zone": "South East", "commissionerate": "Hyderabad", "latitude": 17.3520, "longitude": 78.5380, "phone": "9490616807"},
  {"id": 81, "name": "Cyber Crime PS", "district": "Hyderabad", "zone": "Special", "commissionerate": "Hyderabad", "latitude": 17.4100, "longitude": 78.4750, "phone": "9490616999"},
  {"id": 82, "name": "Gachibowli PS", "district": "Cyberabad", "zone": "IT Corridor", "commissionerate": "Cyberabad", "latitude": 17.4400, "longitude": 78.3489, "phone": "9490617001"},
  {"id": 83, "name": "Madhapur PS", "district": "Cyberabad", "zone": "IT Corridor", "commissionerate": "Cyberabad", "latitude": 17.4486, "longitude": 78.3908, "phone": "9490617002"},
  {"id": 84, "name": "Raidurgam PS", "district": "Cyberabad", "zone": "IT Corridor", "commissionerate": "Cyberabad", "latitude": 17.4268, "longitude": 78.3865, "phone": "9490617003"},
  {"id": 85, "name": "HITEC City PS", "district": "Cyberabad", "zone": "IT Corridor", "commissionerate": "Cyberabad", "latitude": 17.4435, "longitude": 78.3772, "phone": "9490617004"},
  {"id": 86, "name": "Kondapur PS", "district": "Cyberabad", "zone": "IT Corridor", "commissionerate": "Cyberabad", "latitude": 17.4688, "longitude": 78.3531, "phone": "9490617005"},
  {"id": 87, "name": "Narsingi PS", "district": "Cyberabad", "zone": "IT Corridor", "commissionerate": "Cyberabad", "latitude": 17.3957, "longitude": 78.3573, "phone": "9490617006"},
  {"id": 88, "name": "Chandanagar PS", "district": "Cyberabad", "zone": "Balanagar", "commissionerate": "Cyberabad", "latitude": 17.4903, "longitude": 78.3285, "phone": "9490617101"},
  {"id": 89, "name": "Miyapur PS", "district": "Cyberabad", "zone": "Balanagar", "commissionerate": "Cyberabad", "latitude": 17.4947, "longitude": 78.3557, "phone": "9490617102"},
  {"id": 90, "name": "KPHB PS", "district": "Cyberabad", "zone": "Balanagar", "commissionerate": "Cyberabad", "latitude": 17.4830, "longitude": 78.3880, "phone": "9490617103"},
  {"id": 91, "name": "Kukatpally PS", "district": "Cyberabad", "zone": "Balanagar", "commissionerate": "Cyberabad", "latitude": 17.4849, "longitude": 78.4138, "phone": "9490617104"},
  {"id": 92, "name": "Balanagar PS", "district": "Cyberabad", "zone": "Balanagar", "commissionerate": "Cyberabad", "latitude": 17.4785, "longitude": 78.4425, "phone": "9490617105"},
  {"id": 93, "name": "Jeedimetla PS", "district": "Cyberabad", "zone": "Balanagar", "commissionerate": "Cyberabad", "latitude": 17.5020, "longitude": 78.4380, "phone": "9490617106"},
  {"id": 94, "name": "Jagadgirigutta PS", "district": "Cyberabad", "zone": "Balanagar", "commissionerate": "Cyberabad", "latitude": 17.5150, "longitude": 78.4180, "phone": "9490617107"},
  {"id": 95, "name": "Petbasheerabad PS", "district": "Cyberabad", "zone": "Balanagar", "commissionerate": "Cyberabad", "latitude": 17.5250, "longitude": 78.4350, "phone": "9490617108"},
  {"id": 96, "name": "Bachupally PS", "district": "Cyberabad", "zone": "Balanagar", "commissionerate": "Cyberabad", "latitude": 17.5380, "longitude": 78.3850, "phone": "9490617109"},
  {"id": 97, "name": "Dundigal PS", "district": "Cyberabad", "zone": "Balanagar", "commissionerate": "Cyberabad", "latitude": 17.5650, "longitude": 78.4050, "phone": "9490617110"},
  {"id": 98, "name": "Patancheru PS", "district": "Cyberabad", "zone": "Patancheru", "commissionerate": "Cyberabad", "latitude": 17.5330, "longitude": 78.2660, "phone": "9490617201"},
  {"id": 99, "name": "RC Puram PS", "district": "Cyberabad", "zone": "Patancheru", "commissionerate": "Cyberabad", "latitude": 17.4980, "longitude": 78.3020, "phone": "9490617202"},
  {"id": 100, "name": "Ameenpur PS", "district": "Cyberabad", "zone": "Patancheru", "commissionerate": "Cyberabad", "latitude": 17.5120, "longitude": 78.3280, "phone": "9490617203"},
  {"id": 101, "name": "Sangareddy Town PS", "district": "Sangareddy", "zone": "Sangareddy", "commissionerate": "District", "latitude": 17.6243, "longitude": 78.0863, "phone": "9490618001"},
  {"id": 102, "name": "Zaheerabad PS", "district": "Sangareddy", "zone": "Sangareddy", "commissionerate": "District", "latitude": 17.6813, "longitude": 77.6067, "phone": "9490618002"},
  {"id": 103, "name": "Narayankhed PS", "district": "Sangareddy", "zone": "Sangareddy", "commissionerate": "District", "latitude": 17.8050, "longitude": 77.7650, "phone": "9490618003"},
  {"id": 104, "name": "Andole PS", "district": "Sangareddy", "zone": "Sangareddy", "commissionerate": "District", "latitude": 17.6820, "longitude": 77.8250, "phone": "9490618004"},
  {"id": 105, "name": "Jogipet PS", "district": "Sangareddy", "zone": "Sangareddy", "commissionerate": "District", "latitude": 17.7180, "longitude": 78.0050, "phone": "9490618005"},
  {"id": 106, "name": "Ramachandrapuram PS", "district": "Sangareddy", "zone": "Sangareddy", "commissionerate": "District", "latitude": 17.5820, "longitude": 78.1980, "phone": "9490618006"},
  {"id": 107, "name": "Sadasivpet PS", "district": "Sangareddy", "zone": "Sangareddy", "commissionerate": "District", "latitude": 17.6200, "longitude": 77.9520, "phone": "9490618007"},
  {"id": 108, "name": "Bollaram IDA PS", "district": "Cyberabad", "zone": "Balanagar", "commissionerate": "Cyberabad", "latitude": 17.5280, "longitude": 78.4250, "phone": "9490617111"},
  {"id": 109, "name": "Shamshabad PS", "district": "Cyberabad", "zone": "Shamshabad", "commissionerate": "Cyberabad", "latitude": 17.2543, "longitude": 78.4075, "phone": "9490617301"},
  {"id": 110, "name": "Rajendranagar Rural PS", "district": "Cyberabad", "zone": "Shamshabad", "commissionerate": "Cyberabad", "latitude": 17.2850, "longitude": 78.3820, "phone": "9490617302"},
  {"id": 111, "name": "Chevella PS", "district": "Cyberabad", "zone": "Shamshabad", "commissionerate": "Cyberabad", "latitude": 17.3154, "longitude": 78.1355, "phone": "9490617303"},
  {"id": 112, "name": "Moinabad PS", "district": "Cyberabad", "zone": "Shamshabad", "commissionerate": "Cyberabad", "latitude": 17.3280, "longitude": 78.2550, "phone": "9490617304"},
  {"id": 113, "name": "Shankarpally PS", "district": "Cyberabad", "zone": "Shamshabad", "commissionerate": "Cyberabad", "latitude": 17.4520, "longitude": 78.1350, "phone": "9490617305"},
  {"id": 114, "name": "Mokila PS", "district": "Cyberabad", "zone": "Shamshabad", "commissionerate": "Cyberabad", "latitude": 17.3850, "longitude": 78.2280, "phone": "9490617306"},
  {"id": 115, "name": "Kollur PS", "district": "Cyberabad", "zone": "IT Corridor", "commissionerate": "Cyberabad", "latitude": 17.4120, "longitude": 78.3180, "phone": "9490617007"},
  {"id": 116, "name": "Nanakramguda PS", "district": "Cyberabad", "zone": "IT Corridor", "commissionerate": "Cyberabad", "latitude": 17.4280, "longitude": 78.3650, "phone": "9490617008"},
  {"id": 117, "name": "Financial District PS", "district": "Cyberabad", "zone": "IT Corridor", "commissionerate": "Cyberabad", "latitude": 17.4150, "longitude": 78.3350, "phone": "9490617009"},
  {"id": 118, "name": "Manikonda PS", "district": "Cyberabad", "zone": "IT Corridor", "commissionerate": "Cyberabad", "latitude": 17.4050, "longitude": 78.3880, "phone": "9490617010"},
  {"id": 119, "name": "Puppalguda PS", "district": "Cyberabad", "zone": "IT Corridor", "commissionerate": "Cyberabad", "latitude": 17.3980, "longitude": 78.3720, "phone": "9490617011"},
  {"id": 120, "name": "Tellapur PS", "district": "Cyberabad", "zone": "Patancheru", "commissionerate": "Cyberabad", "latitude": 17.4850, "longitude": 78.2680, "phone": "9490617204"},
  {"id": 121, "name": "LB Nagar PS", "district": "Rachakonda", "zone": "LB Nagar", "commissionerate": "Rachakonda", "latitude": 17.3495, "longitude": 78.5495, "phone": "9490619001"},
  {"id": 122, "name": "Vanasthalipuram PS", "district": "Rachakonda", "zone": "LB Nagar", "commissionerate": "Rachakonda", "latitude": 17.3280, "longitude": 78.5580, "phone": "9490619002"},
  {"id": 123, "name": "Hayathnagar PS", "district": "Rachakonda", "zone": "LB Nagar", "commissionerate": "Rachakonda", "latitude": 17.3350, "longitude": 78.5850, "phone": "9490619003"},
  {"id": 124, "name": "Abdullapurmet PS", "district": "Rachakonda", "zone": "LB Nagar", "commissionerate": "Rachakonda", "latitude": 17.3150, "longitude": 78.6150, "phone": "9490619004"},
  {"id": 125, "name": "Choutuppal PS", "district": "Rachakonda", "zone": "LB Nagar", "commissionerate": "Rachakonda", "latitude": 17.2530, "longitude": 78.8950, "phone": "9490619005"},
  {"id": 126, "name": "Uppal PS", "district": "Rachakonda", "zone": "Malkajgiri", "commissionerate": "Rachakonda", "latitude": 17.4050, "longitude": 78.5580, "phone": "9490619101"},
  {"id": 127, "name": "Nacharam PS", "district": "Rachakonda", "zone": "Malkajgiri", "commissionerate": "Rachakonda", "latitude": 17.4180, "longitude": 78.5480, "phone": "9490619102"},
  {"id": 128, "name": "Habsiguda PS", "district": "Rachakonda", "zone": "Malkajgiri", "commissionerate": "Rachakonda", "latitude": 17.4250, "longitude": 78.5350, "phone": "9490619103"},
  {"id": 129, "name": "Tarnaka PS", "district": "Rachakonda", "zone": "Malkajgiri", "commissionerate": "Rachakonda", "latitude": 17.4320, "longitude": 78.5220, "phone": "9490619104"},
  {"id": 130, "name": "Kushaiguda PS", "district": "Rachakonda", "zone": "Malkajgiri", "commissionerate": "Rachakonda", "latitude": 17.4650, "longitude": 78.5650, "phone": "9490619105"},
  {"id": 131, "name": "Neredmet PS", "district": "Rachakonda", "zone": "Malkajgiri", "commissionerate": "Rachakonda", "latitude": 17.4780, "longitude": 78.5380, "phone": "9490619106"},
  {"id": 132, "name": "Kapra PS", "district": "Rachakonda", "zone": "Malkajgiri", "commissionerate": "Rachakonda", "latitude": 17.4920, "longitude": 78.5520, "phone": "9490619107"},
  {"id": 133, "name": "Medipally PS", "district": "Rachakonda", "zone": "Malkajgiri", "commissionerate": "Rachakonda", "latitude": 17.4550, "longitude": 78.6080, "phone": "9490619108"},
  {"id": 134, "name": "Ghatkesar PS", "district": "Rachakonda", "zone": "Malkajgiri", "commissionerate": "Rachakonda", "latitude": 17.4520, "longitude": 78.6750, "phone": "9490619109"},
  {"id": 135, "name": "Keesara PS", "district": "Rachakonda", "zone": "Malkajgiri", "commissionerate": "Rachakonda", "latitude": 17.5250, "longitude": 78.6050, "phone": "9490619110"},
  {"id": 136, "name": "Jawaharnagar PS", "district": "Rachakonda", "zone": "Malkajgiri", "commissionerate": "Rachakonda", "latitude": 17.5120, "longitude": 78.5780, "phone": "9490619111"},
  {"id": 137, "name": "Peerzadiguda PS", "district": "Rachakonda", "zone": "Malkajgiri", "commissionerate": "Rachakonda", "latitude": 17.4380, "longitude": 78.5920, "phone": "9490619112"},
  {"id": 138, "name": "Maheshwaram PS", "district": "Rachakonda", "zone": "Ibrahimpatnam", "commissionerate": "Rachakonda", "latitude": 17.1870, "longitude": 78.4380, "phone": "9490619201"},
  {"id": 139, "name": "Ibrahimpatnam PS", "district": "Rachakonda", "zone": "Ibrahimpatnam", "commissionerate": "Rachakonda", "latitude": 17.1650, "longitude": 78.6050, "phone": "9490619202"},
  {"id": 140, "name": "Manchal PS", "district": "Rachakonda", "zone": "Ibrahimpatnam", "commissionerate": "Rachakonda", "latitude": 17.2280, "longitude": 78.5480, "phone": "9490619203"},
  {"id": 141, "name": "Yacharam PS", "district": "Rachakonda", "zone": "Ibrahimpatnam", "commissionerate": "Rachakonda", "latitude": 17.1450, "longitude": 78.5280, "phone": "9490619204"},
  {"id": 142, "name": "Kandukur PS", "district": "Rachakonda", "zone": "Ibrahimpatnam", "commissionerate": "Rachakonda", "latitude": 17.1850, "longitude": 78.6580, "phone": "9490619205"},
  {"id": 143, "name": "Medak Town PS", "district": "Medak", "zone": "Medak", "commissionerate": "District", "latitude": 17.7667, "longitude": 78.2650, "phone": "9490620001"},
  {"id": 144, "name": "Toopran PS", "district": "Medak", "zone": "Medak", "commissionerate": "District", "latitude": 17.8750, "longitude": 78.4850, "phone": "9490620002"},
  {"id": 145, "name": "Ramayampet PS", "district": "Medak", "zone": "Medak", "commissionerate": "District", "latitude": 17.9350, "longitude": 78.3350, "phone": "9490620003"},
  {"id": 146, "name": "Narsapur PS", "district": "Medak", "zone": "Medak", "commissionerate": "District", "latitude": 17.7350, "longitude": 78.3050, "phone": "9490620004"},
  {"id": 147, "name": "Alladurg PS", "district": "Medak", "zone": "Medak", "commissionerate": "District", "latitude": 17.7050, "longitude": 78.0850, "phone": "9490620005"},
  {"id": 148, "name": "Siddipet Town PS", "district": "Siddipet", "zone": "Siddipet", "commissionerate": "Siddipet", "latitude": 18.1018, "longitude": 78.8520, "phone": "9490621001"},
  {"id": 149, "name": "Gajwel PS", "district": "Siddipet", "zone": "Siddipet", "commissionerate": "District", "latitude": 17.8494, "longitude": 78.6917, "phone": "9490621002"},
  {"id": 150, "name": "Dubbaka PS", "district": "Siddipet", "zone": "Siddipet", "commissionerate": "District", "latitude": 17.7550, "longitude": 78.5450, "phone": "9490621003"},
  {"id": 151, "name": "Husnabad PS", "district": "Siddipet", "zone": "Siddipet", "commissionerate": "District", "latitude": 18.1350, "longitude": 78.9780, "phone": "9490621004"},
  {"id": 152, "name": "Cheriyal PS", "district": "Siddipet", "zone": "Siddipet", "commissionerate": "District", "latitude": 17.9650, "longitude": 78.9050, "phone": "9490621005"},
  {"id": 153, "name": "Thoguta PS", "district": "Siddipet", "zone": "Siddipet", "commissionerate": "District", "latitude": 18.0550, "longitude": 78.7850, "phone": "9490621006"},
  {"id": 154, "name": "Karimnagar Town PS", "district": "Karimnagar", "zone": "Karimnagar", "commissionerate": "Karimnagar", "latitude": 18.4386, "longitude": 79.1288, "phone": "9490622001"},
  {"id": 155, "name": "Karimnagar Two Town PS", "district": "Karimnagar", "zone": "Karimnagar", "commissionerate": "Karimnagar", "latitude": 18.4350, "longitude": 79.1320, "phone": "9490622002"},
  {"id": 156, "name": "Huzurabad PS", "district": "Karimnagar", "zone": "Karimnagar", "commissionerate": "District", "latitude": 18.4016, "longitude": 79.4063, "phone": "9490622003"},
  {"id": 157, "name": "Jammikunta PS", "district": "Karimnagar", "zone": "Karimnagar", "commissionerate": "District", "latitude": 18.2860, "longitude": 79.4680, "phone": "9490622004"},
  {"id": 158, "name": "Vemulawada PS", "district": "Rajanna Sircilla", "zone": "Rajanna Sircilla", "commissionerate": "District", "latitude": 18.4694, "longitude": 78.8636, "phone": "9490622005"},
  {"id": 159, "name": "Sircilla Town PS", "district": "Rajanna Sircilla", "zone": "Rajanna Sircilla", "commissionerate": "District", "latitude": 18.3878, "longitude": 78.8372, "phone": "9490622006"},
  {"id": 160, "name": "Warangal One Town PS", "district": "Warangal Urban", "zone": "Warangal", "commissionerate": "Warangal", "latitude": 17.9784, "longitude": 79.5941, "phone": "9490623001"},
  {"id": 161, "name": "Warangal Two Town PS", "district": "Warangal Urban", "zone": "Warangal", "commissionerate": "Warangal", "latitude": 17.9750, "longitude": 79.5880, "phone": "9490623002"},
  {"id": 162, "name": "Hanamkonda PS", "district": "Warangal Urban", "zone": "Warangal", "commissionerate": "Warangal", "latitude": 17.9971, "longitude": 79.5576, "phone": "9490623003"},
  {"id": 163, "name": "Kazipet PS", "district": "Warangal Urban", "zone": "Warangal", "commissionerate": "Warangal", "latitude": 17.9600, "longitude": 79.5100, "phone": "9490623004"},
  {"id": 164, "name": "Subedari PS", "district": "Warangal Urban", "zone": "Warangal", "commissionerate": "Warangal", "latitude": 18.0150, "longitude": 79.5680, "phone": "9490623005"},
  {"id": 165, "name": "Bheemdevarapally PS", "district": "Warangal Urban", "zone": "Warangal", "commissionerate": "District", "latitude": 18.0550, "longitude": 79.6050, "phone": "9490623006"},
  {"id": 166, "name": "Jangaon PS", "district": "Jangaon", "zone": "Jangaon", "commissionerate": "District", "latitude": 17.7250, "longitude": 79.1917, "phone": "9490623007"},
  {"id": 167, "name": "Mulugu PS", "district": "Mulugu", "zone": "Mulugu", "commissionerate": "District", "latitude": 18.1920, "longitude": 79.9450, "phone": "9490623008"},
  {"id": 168, "name": "Eturunagaram PS", "district": "Mulugu", "zone": "Mulugu", "commissionerate": "District", "latitude": 18.3550, "longitude": 80.1850, "phone": "9490623009"},
  {"id": 169, "name": "Mahabubabad PS", "district": "Mahabubabad", "zone": "Mahabubabad", "commissionerate": "District", "latitude": 17.5958, "longitude": 80.0028, "phone": "9490624001"},
  {"id": 170, "name": "Thorrur PS", "district": "Mahabubabad", "zone": "Mahabubabad", "commissionerate": "District", "latitude": 17.5450, "longitude": 79.8650, "phone": "9490624002"},
  {"id": 171, "name": "Dornakal PS", "district": "Mahabubabad", "zone": "Mahabubabad", "commissionerate": "District", "latitude": 17.4450, "longitude": 79.9050, "phone": "9490624003"},
  {"id": 172, "name": "Narsampet PS", "district": "Warangal Rural", "zone": "Warangal Rural", "commissionerate": "District", "latitude": 17.9283, "longitude": 79.9025, "phone": "9490623010"},
  {"id": 173, "name": "Parkal PS", "district": "Warangal Rural", "zone": "Warangal Rural", "commissionerate": "District", "latitude": 18.1967, "longitude": 79.7225, "phone": "9490623011"},
  {"id": 174, "name": "Wardhannapet PS", "district": "Warangal Rural", "zone": "Warangal Rural", "commissionerate": "District", "latitude": 17.8650, "longitude": 79.7280, "phone": "9490623012"},
  {"id": 175, "name": "Khammam One Town PS", "district": "Khammam", "zone": "Khammam", "commissionerate": "Khammam", "latitude": 17.2473, "longitude": 80.1514, "phone": "9490625001"},
  {"id": 176, "name": "Khammam Two Town PS", "district": "Khammam", "zone": "Khammam", "commissionerate": "Khammam", "latitude": 17.2450, "longitude": 80.1480, "phone": "9490625002"},
  {"id": 177, "name": "Kothagudem PS", "district": "Bhadradri", "zone": "Bhadradri", "commissionerate": "District", "latitude": 17.5558, "longitude": 80.6167, "phone": "9490625003"},
  {"id": 178, "name": "Bhadrachalam PS", "district": "Bhadradri", "zone": "Bhadradri", "commissionerate": "District", "latitude": 17.6688, "longitude": 80.8936, "phone": "9490625004"},
  {"id": 179, "name": "Yellandu PS", "district": "Bhadradri", "zone": "Bhadradri", "commissionerate": "District", "latitude": 17.5967, "longitude": 80.3017, "phone": "9490625005"},
  {"id": 180, "name": "Manuguru PS", "district": "Bhadradri", "zone": "Bhadradri", "commissionerate": "District", "latitude": 17.9750, "longitude": 80.7517, "phone": "9490625006"},
  {"id": 181, "name": "Palvancha PS", "district": "Bhadradri", "zone": "Bhadradri", "commissionerate": "District", "latitude": 17.6033, "longitude": 80.6950, "phone": "9490625007"},
  {"id": 182, "name": "Sathupally PS", "district": "Khammam", "zone": "Khammam", "commissionerate": "District", "latitude": 17.2517, "longitude": 80.8633, "phone": "9490625008"},
  {"id": 183, "name": "Wyra PS", "district": "Khammam", "zone": "Khammam", "commissionerate": "District", "latitude": 17.1950, "longitude": 80.3350, "phone": "9490625009"},
  {"id": 184, "name": "Madhira PS", "district": "Khammam", "zone": "Khammam", "commissionerate": "District", "latitude": 17.0250, "longitude": 80.3683, "phone": "9490625010"},
  {"id": 185, "name": "Nalgonda Town PS", "district": "Nalgonda", "zone": "Nalgonda", "commissionerate": "District", "latitude": 17.0500, "longitude": 79.2667, "phone": "9490626001"},
  {"id": 186, "name": "Miryalaguda PS", "district": "Nalgonda", "zone": "Nalgonda", "commissionerate": "District", "latitude": 16.8738, "longitude": 79.5650, "phone": "9490626002"},
  {"id": 187, "name": "Devarakonda PS", "district": "Nalgonda", "zone": "Nalgonda", "commissionerate": "District", "latitude": 16.6917, "longitude": 79.2917, "phone": "9490626003"},
  {"id": 188, "name": "Nakrekal PS", "district": "Nalgonda", "zone": "Nalgonda", "commissionerate": "District", "latitude": 17.1617, "longitude": 79.4250, "phone": "9490626004"},
  {"id": 189, "name": "Kodada PS", "district": "Suryapet", "zone": "Suryapet", "commissionerate": "District", "latitude": 16.9933, "longitude": 79.9700, "phone": "9490626005"},
  {"id": 190, "name": "Suryapet Town PS", "district": "Suryapet", "zone": "Suryapet", "commissionerate": "District", "latitude": 17.1400, "longitude": 79.6267, "phone": "9490626006"},
  {"id": 191, "name": "Huzurnagar PS", "district": "Suryapet", "zone": "Suryapet", "commissionerate": "District", "latitude": 16.9000, "longitude": 79.8833, "phone": "9490626007"},
  {"id": 192, "name": "Mahabubnagar Town PS", "district": "Mahabubnagar", "zone": "Mahabubnagar", "commissionerate": "District", "latitude": 16.7488, "longitude": 77.9850, "phone": "9490627001"},
  {"id": 193, "name": "Jadcherla PS", "district": "Mahabubnagar", "zone": "Mahabubnagar", "commissionerate": "District", "latitude": 16.7617, "longitude": 78.1383, "phone": "9490627002"},
  {"id": 194, "name": "Shadnagar PS", "district": "Mahabubnagar", "zone": "Mahabubnagar", "commissionerate": "District", "latitude": 17.0617, "longitude": 78.2117, "phone": "9490627003"},
  {"id": 195, "name": "Kalwakurthy PS", "district": "Nagarkurnool", "zone": "Nagarkurnool", "commissionerate": "District", "latitude": 16.6667, "longitude": 78.4833, "phone": "9490627004"},
  {"id": 196, "name": "Nagarkurnool PS", "district": "Nagarkurnool", "zone": "Nagarkurnool", "commissionerate": "District", "latitude": 16.4800, "longitude": 78.3100, "phone": "9490627005"},
  {"id": 197, "name": "Achampet PS", "district": "Nagarkurnool", "zone": "Nagarkurnool", "commissionerate": "District", "latitude": 16.3950, "longitude": 78.6183, "phone": "9490627006"},
  {"id": 198, "name": "Kollapur PS", "district": "Nagarkurnool", "zone": "Nagarkurnool", "commissionerate": "District", "latitude": 16.1067, "longitude": 78.3133, "phone": "9490627007"},
  {"id": 199, "name": "Gadwal PS", "district": "Jogulamba Gadwal", "zone": "Gadwal", "commissionerate": "District", "latitude": 16.2317, "longitude": 77.8050, "phone": "9490628001"},
  {"id": 200, "name": "Alampur PS", "district": "Jogulamba Gadwal", "zone": "Gadwal", "commissionerate": "District", "latitude": 15.8817, "longitude": 78.1183, "phone": "9490628002"},
  {"id": 201, "name": "Wanaparthy Town PS", "district": "Wanaparthy", "zone": "Wanaparthy", "commissionerate": "District", "latitude": 16.3617, "longitude": 78.0617, "phone": "9490628003"},
  {"id": 202, "name": "Pangal PS", "district": "Wanaparthy", "zone": "Wanaparthy", "commissionerate": "District", "latitude": 16.4550, "longitude": 78.0150, "phone": "9490628004"},
  {"id": 203, "name": "Narayanpet PS", "district": "Narayanpet", "zone": "Narayanpet", "commissionerate": "District", "latitude": 16.7350, "longitude": 77.4950, "phone": "9490628005"},
  {"id": 204, "name": "Makthal PS", "district": "Narayanpet", "zone": "Narayanpet", "commissionerate": "District", "latitude": 16.5017, "longitude": 77.5817, "phone": "9490628006"},
  {"id": 205, "name": "Nizamabad One Town PS", "district": "Nizamabad", "zone": "Nizamabad", "commissionerate": "Nizamabad", "latitude": 18.6725, "longitude": 78.0942, "phone": "9490629001"},
  {"id": 206, "name": "Nizamabad Two Town PS", "district": "Nizamabad", "zone": "Nizamabad", "commissionerate": "Nizamabad", "latitude": 18.6700, "longitude": 78.0900, "phone": "9490629002"},
  {"id": 207, "name": "Bodhan PS", "district": "Nizamabad", "zone": "Nizamabad", "commissionerate": "District", "latitude": 18.6633, "longitude": 77.8917, "phone": "9490629003"},
  {"id": 208, "name": "Armoor PS", "district": "Nizamabad", "zone": "Nizamabad", "commissionerate": "District", "latitude": 18.7883, "longitude": 78.2850, "phone": "9490629004"},
  {"id": 209, "name": "Kamareddy PS", "district": "Kamareddy", "zone": "Kamareddy", "commissionerate": "District", "latitude": 18.3217, "longitude": 78.3367, "phone": "9490629005"},
  {"id": 210, "name": "Banswada PS", "district": "Kamareddy", "zone": "Kamareddy", "commissionerate": "District", "latitude": 18.3817, "longitude": 77.8917, "phone": "9490629006"},
  {"id": 211, "name": "Yellareddy PS", "district": "Kamareddy", "zone": "Kamareddy", "commissionerate": "District", "latitude": 18.1850, "longitude": 78.0150, "phone": "9490629007"},
  {"id": 212, "name": "Adilabad PS", "district": "Adilabad", "zone": "Adilabad", "commissionerate": "District", "latitude": 19.6633, "longitude": 78.5317, "phone": "9490630001"},
  {"id": 213, "name": "Utnoor PS", "district": "Adilabad", "zone": "Adilabad", "commissionerate": "District", "latitude": 19.3617, "longitude": 78.7550, "phone": "9490630002"},
  {"id": 214, "name": "Mancherial PS", "district": "Mancherial", "zone": "Mancherial", "commissionerate": "District", "latitude": 18.8683, "longitude": 79.4617, "phone": "9490630003"},
  {"id": 215, "name": "Bellampally PS", "district": "Mancherial", "zone": "Mancherial", "commissionerate": "District", "latitude": 19.0533, "longitude": 79.4933, "phone": "9490630004"},
  {"id": 216, "name": "Ramagundam PS", "district": "Peddapalli", "zone": "Ramagundam", "commissionerate": "Ramagundam", "latitude": 18.7550, "longitude": 79.4750, "phone": "9490630005"},
  {"id": 217, "name": "Godavarikhani PS", "district": "Peddapalli", "zone": "Ramagundam", "commissionerate": "Ramagundam", "latitude": 18.7550, "longitude": 79.5117, "phone": "9490630006"},
  {"id": 218, "name": "Peddapalli PS", "district": "Peddapalli", "zone": "Peddapalli", "commissionerate": "District", "latitude": 18.6150, "longitude": 79.3783, "phone": "9490630007"},
  {"id": 219, "name": "Sultanabad PS", "district": "Peddapalli", "zone": "Peddapalli", "commissionerate": "District", "latitude": 18.7150, "longitude": 79.3350, "phone": "9490630008"},
  {"id": 220, "name": "Nirmal PS", "district": "Nirmal", "zone": "Nirmal", "commissionerate": "District", "latitude": 19.0967, "longitude": 78.3467, "phone": "9490631001"},
  {"id": 221, "name": "Bhainsa PS", "district": "Nirmal", "zone": "Nirmal", "commissionerate": "District", "latitude": 19.1033, "longitude": 77.9633, "phone": "9490631002"},
  {"id": 222, "name": "Mudhole PS", "district": "Nirmal", "zone": "Nirmal", "commissionerate": "District", "latitude": 19.2783, "longitude": 78.2050, "phone": "9490631003"},
  {"id": 223, "name": "Asifabad PS", "district": "Kumuram Bheem", "zone": "Asifabad", "commissionerate": "District", "latitude": 19.3633, "longitude": 79.2833, "phone": "9490631004"},
  {"id": 224, "name": "Kaghaznagar PS", "district": "Kumuram Bheem", "zone": "Asifabad", "commissionerate": "District", "latitude": 19.3317, "longitude": 79.4650, "phone": "9490631005"},
  {"id": 225, "name": "Vikarabad PS", "district": "Vikarabad", "zone": "Vikarabad", "commissionerate": "District", "latitude": 17.3372, "longitude": 77.9047, "phone": "9490632001"},
  {"id": 226, "name": "Tandur PS", "district": "Vikarabad", "zone": "Vikarabad", "commissionerate": "District", "latitude": 17.2467, "longitude": 77.5783, "phone": "9490632002"},
  {"id": 227, "name": "Pargi PS", "district": "Vikarabad", "zone": "Vikarabad", "commissionerate": "District", "latitude": 17.3383, "longitude": 78.0050, "phone": "9490632003"},
  {"id": 228, "name": "Kodangal PS", "district": "Vikarabad", "zone": "Vikarabad", "commissionerate": "District", "latitude": 17.1983, "longitude": 77.7017, "phone": "9490632004"},
  {"id": 229, "name": "Bhongir PS", "district": "Yadadri Bhongir", "zone": "Bhongir", "commissionerate": "District", "latitude": 17.5133, "longitude": 78.8850, "phone": "9490633001"},
  {"id": 230, "name": "Alair PS", "district": "Yadadri Bhongir", "zone": "Bhongir", "commissionerate": "District", "latitude": 17.3217, "longitude": 78.8150, "phone": "9490633002"},
  {"id": 231, "name": "Yadagirigutta PS", "district": "Yadadri Bhongir", "zone": "Bhongir", "commissionerate": "District", "latitude": 17.5917, "longitude": 78.9550, "phone": "9490633003"},
  {"id": 232, "name": "Ramannapet PS", "district": "Yadadri Bhongir", "zone": "Bhongir", "commissionerate": "District", "latitude": 17.2500, "longitude": 78.9917, "phone": "9490633004"},
  {"id": 233, "name": "Jagtial PS", "district": "Jagtial", "zone": "Jagtial", "commissionerate": "District", "latitude": 18.7950, "longitude": 78.9183, "phone": "9490634001"},
  {"id": 234, "name": "Korutla PS", "district": "Jagtial", "zone": "Jagtial", "commissionerate": "District", "latitude": 18.8217, "longitude": 78.7117, "phone": "9490634002"},
  {"id": 235, "name": "Metpally PS", "district": "Jagtial", "zone": "Jagtial", "commissionerate": "District", "latitude": 18.8217, "longitude": 78.5883, "phone": "9490634003"},
  {"id": 236, "name": "Raikal PS", "district": "Jagtial", "zone": "Jagtial", "commissionerate": "District", "latitude": 18.9050, "longitude": 78.8150, "phone": "9490634004"},
  {"id": 237, "name": "Dharmapuri PS", "district": "Jagtial", "zone": "Jagtial", "commissionerate": "District", "latitude": 18.9417, "longitude": 79.1183, "phone": "9490634005"},
  {"id": 238, "name": "Gollapalli PS", "district": "Jagtial", "zone": "Jagtial", "commissionerate": "District", "latitude": 18.7583, "longitude": 79.0550, "phone": "9490634006"},
  {"id": 239, "name": "Medchal PS", "district": "Medchal-Malkajgiri", "zone": "Medchal", "commissionerate": "District", "latitude": 17.6300, "longitude": 78.4817, "phone": "9490635001"},
  {"id": 240, "name": "Shamirpet PS", "district": "Medchal-Malkajgiri", "zone": "Medchal", "commissionerate": "District", "latitude": 17.6283, "longitude": 78.5717, "phone": "9490635002"},
  {"id": 241, "name": "Kompally PS", "district": "Medchal-Malkajgiri", "zone": "Medchal", "commissionerate": "District", "latitude": 17.5483, "longitude": 78.4817, "phone": "9490635003"},
  {"id": 242, "name": "Quthbullapur PS", "district": "Medchal-Malkajgiri", "zone": "Medchal", "commissionerate": "District", "latitude": 17.5650, "longitude": 78.4417, "phone": "9490635004"},
  {"id": 243, "name": "Almasguda PS", "district": "Medchal-Malkajgiri", "zone": "Medchal", "commissionerate": "District", "latitude": 17.5817, "longitude": 78.5283, "phone": "9490635005"},
  {"id": 244, "name": "Gundlapochampally PS", "district": "Medchal-Malkajgiri", "zone": "Medchal", "commissionerate": "District", "latitude": 17.5950, "longitude": 78.4550, "phone": "9490635006"},
  {"id": 245, "name": "Ranga Reddy One Town PS", "district": "Ranga Reddy", "zone": "Ranga Reddy", "commissionerate": "District", "latitude": 17.3450, "longitude": 78.3950, "phone": "9490636001"},
  {"id": 246, "name": "Keshampet PS", "district": "Ranga Reddy", "zone": "Ranga Reddy", "commissionerate": "District", "latitude": 17.2550, "longitude": 78.3350, "phone": "9490636002"},
  {"id": 247, "name": "Kandukur PS", "district": "Ranga Reddy", "zone": "Ranga Reddy", "commissionerate": "District", "latitude": 17.2183, "longitude": 78.3050, "phone": "9490636003"},
  {"id": 248, "name": "Farooqnagar PS", "district": "Ranga Reddy", "zone": "Ranga Reddy", "commissionerate": "District", "latitude": 17.0933, "longitude": 78.1900, "phone": "9490636004"},
  {"id": 249, "name": "Peddemul PS", "district": "Vikarabad", "zone": "Vikarabad", "commissionerate": "District", "latitude": 17.4150, "longitude": 77.8550, "phone": "9490632005"},
  {"id": 250, "name": "Basheerabad PS", "district": "Vikarabad", "zone": "Vikarabad", "commissionerate": "District", "latitude": 17.2750, "longitude": 77.8250, "phone": "9490632006"},
  {"id": 251, "name": "Manoor PS", "district": "Medak", "zone": "Medak", "commissionerate": "District", "latitude": 17.6550, "longitude": 78.4250, "phone": "9490620006"},
  {"id": 252, "name": "Haveli Ghanpur PS", "district": "Medak", "zone": "Medak", "commissionerate": "District", "latitude": 17.8350, "longitude": 78.4050, "phone": "9490620007"},
  {"id": 253, "name": "Tekmal PS", "district": "Medak", "zone": "Medak", "commissionerate": "District", "latitude": 17.6750, "longitude": 78.3850, "phone": "9490620008"},
  {"id": 254, "name": "Shivampet PS", "district": "Medak", "zone": "Medak", "commissionerate": "District", "latitude": 17.6050, "longitude": 78.1650, "phone": "9490620009"},
  {"id": 255, "name": "Kohir PS", "district": "Sangareddy", "zone": "Sangareddy", "commissionerate": "District", "latitude": 17.6050, "longitude": 77.7250, "phone": "9490618008"},
  {"id": 256, "name": "Nyalkal PS", "district": "Sangareddy", "zone": "Sangareddy", "commissionerate": "District", "latitude": 17.6850, "longitude": 77.9050, "phone": "9490618009"},
  {"id": 257, "name": "Hathnoora PS", "district": "Sangareddy", "zone": "Sangareddy", "commissionerate": "District", "latitude": 17.5350, "longitude": 78.2450, "phone": "9490618010"},
  {"id": 258, "name": "Kandi PS", "district": "Sangareddy", "zone": "Sangareddy", "commissionerate": "District", "latitude": 17.6450, "longitude": 78.1150, "phone": "9490618011"},
  {"id": 259, "name": "Pulkal PS", "district": "Sangareddy", "zone": "Sangareddy", "commissionerate": "District", "latitude": 17.7150, "longitude": 78.0350, "phone": "9490618012"},
  {"id": 260, "name": "Manopad PS", "district": "Siddipet", "zone": "Siddipet", "commissionerate": "District", "latitude": 18.0250, "longitude": 78.6350, "phone": "9490621007"},
  {"id": 261, "name": "Markook PS", "district": "Siddipet", "zone": "Siddipet", "commissionerate": "District", "latitude": 17.9150, "longitude": 78.7450, "phone": "9490621008"},
  {"id": 262, "name": "Mulugu Siddipet PS", "district": "Siddipet", "zone": "Siddipet", "commissionerate": "District", "latitude": 18.2050, "longitude": 78.8350, "phone": "9490621009"},
  {"id": 263, "name": "Koheda PS", "district": "Siddipet", "zone": "Siddipet", "commissionerate": "District", "latitude": 18.0550, "longitude": 78.9450, "phone": "9490621010"},
  {"id": 264, "name": "Togutta PS", "district": "Siddipet", "zone": "Siddipet", "commissionerate": "District", "latitude": 18.1050, "longitude": 78.8650, "phone": "9490621011"},
  {"id": 265, "name": "Gambhiraopet PS", "district": "Karimnagar", "zone": "Karimnagar", "commissionerate": "District", "latitude": 18.3050, "longitude": 79.1450, "phone": "9490622007"},
  {"id": 266, "name": "Choppadandi PS", "district": "Karimnagar", "zone": "Karimnagar", "commissionerate": "District", "latitude": 18.4250, "longitude": 79.2150, "phone": "9490622008"},
  {"id": 267, "name": "Thimmapur PS", "district": "Karimnagar", "zone": "Karimnagar", "commissionerate": "District", "latitude": 18.4850, "longitude": 79.0650, "phone": "9490622009"},
  {"id": 268, "name": "Kothapally PS", "district": "Karimnagar", "zone": "Karimnagar", "commissionerate": "District", "latitude": 18.3550, "longitude": 79.0850, "phone": "9490622010"},
  {"id": 269, "name": "Manakondur PS", "district": "Karimnagar", "zone": "Karimnagar", "commissionerate": "District", "latitude": 18.5350, "longitude": 79.1550, "phone": "9490622011"},
  {"id": 270, "name": "Chigurumamidi PS", "district": "Karimnagar", "zone": "Karimnagar", "commissionerate": "District", "latitude": 18.2250, "longitude": 79.1950, "phone": "9490622012"},
  {"id": 271, "name": "Ellanthakunta PS", "district": "Rajanna Sircilla", "zone": "Rajanna Sircilla", "commissionerate": "District", "latitude": 18.4250, "longitude": 78.7550, "phone": "9490622013"},
  {"id": 272, "name": "Boinpally PS", "district": "Rajanna Sircilla", "zone": "Rajanna Sircilla", "commissionerate": "District", "latitude": 18.3550, "longitude": 78.9150, "phone": "9490622014"},
  {"id": 273, "name": "Mustabad PS", "district": "Rajanna Sircilla", "zone": "Rajanna Sircilla", "commissionerate": "District", "latitude": 18.3050, "longitude": 78.8550, "phone": "9490622015"},
  {"id": 274, "name": "Dharmasagar PS", "district": "Warangal Urban", "zone": "Warangal", "commissionerate": "Warangal", "latitude": 17.9150, "longitude": 79.5550, "phone": "9490623013"},
  {"id": 275, "name": "Chennaraopet PS", "district": "Warangal Rural", "zone": "Warangal Rural", "commissionerate": "District", "latitude": 17.9450, "longitude": 79.7850, "phone": "9490623014"},
  {"id": 276, "name": "Damera PS", "district": "Warangal Rural", "zone": "Warangal Rural", "commissionerate": "District", "latitude": 17.7450, "longitude": 79.5850, "phone": "9490623015"},
  {"id": 277, "name": "Regonda PS", "district": "Warangal Rural", "zone": "Warangal Rural", "commissionerate": "District", "latitude": 18.1050, "longitude": 79.5950, "phone": "9490623016"},
  {"id": 278, "name": "Sangem PS", "district": "Warangal Rural", "zone": "Warangal Rural", "commissionerate": "District", "latitude": 17.9850, "longitude": 79.8250, "phone": "9490623017"},
  {"id": 279, "name": "Lingagiri PS", "district": "Warangal Rural", "zone": "Warangal Rural", "commissionerate": "District", "latitude": 18.0250, "longitude": 79.6550, "phone": "9490623018"},
  {"id": 280, "name": "Ghanpur Station PS", "district": "Jangaon", "zone": "Jangaon", "commissionerate": "District", "latitude": 17.7850, "longitude": 79.2650, "phone": "9490623019"},
  {"id": 281, "name": "Raghunathpally PS", "district": "Jangaon", "zone": "Jangaon", "commissionerate": "District", "latitude": 17.6550, "longitude": 79.3050, "phone": "9490623020"},
  {"id": 282, "name": "Bachannapeta PS", "district": "Jangaon", "zone": "Jangaon", "commissionerate": "District", "latitude": 17.8050, "longitude": 79.0750, "phone": "9490623021"},
  {"id": 283, "name": "Chilpur PS", "district": "Jangaon", "zone": "Jangaon", "commissionerate": "District", "latitude": 17.8550, "longitude": 79.1950, "phone": "9490623022"},
  {"id": 284, "name": "Zaffergadh PS", "district": "Jangaon", "zone": "Jangaon", "commissionerate": "District", "latitude": 17.6850, "longitude": 79.1350, "phone": "9490623023"},
  {"id": 285, "name": "Mogullapally PS", "district": "Mulugu", "zone": "Mulugu", "commissionerate": "District", "latitude": 18.2550, "longitude": 79.8850, "phone": "9490623024"},
  {"id": 286, "name": "Tadvai PS", "district": "Mulugu", "zone": "Mulugu", "commissionerate": "District", "latitude": 18.0850, "longitude": 80.0350, "phone": "9490623025"},
  {"id": 287, "name": "Venkatapuram PS", "district": "Mulugu", "zone": "Mulugu", "commissionerate": "District", "latitude": 18.3750, "longitude": 80.0250, "phone": "9490623026"},
  {"id": 288, "name": "Gudur PS", "district": "Mahabubabad", "zone": "Mahabubabad", "commissionerate": "District", "latitude": 17.5050, "longitude": 79.9350, "phone": "9490624004"},
  {"id": 289, "name": "Kuravi PS", "district": "Mahabubabad", "zone": "Mahabubabad", "commissionerate": "District", "latitude": 17.6550, "longitude": 79.8550, "phone": "9490624005"},
  {"id": 290, "name": "Nellikudur PS", "district": "Mahabubabad", "zone": "Mahabubabad", "commissionerate": "District", "latitude": 17.4950, "longitude": 79.7550, "phone": "9490624006"},
  {"id": 291, "name": "Kesamudram PS", "district": "Mahabubabad", "zone": "Mahabubabad", "commissionerate": "District", "latitude": 17.6050, "longitude": 80.0750, "phone": "9490624007"},
  {"id": 292, "name": "Maripeda PS", "district": "Mahabubabad", "zone": "Mahabubabad", "commissionerate": "District", "latitude": 17.5250, "longitude": 80.1250, "phone": "9490624008"},
  {"id": 293, "name": "Garla PS", "district": "Mahabubabad", "zone": "Mahabubabad", "commissionerate": "District", "latitude": 17.7050, "longitude": 79.9550, "phone": "9490624009"},
  {"id": 294, "name": "Chinnagudur PS", "district": "Khammam", "zone": "Khammam", "commissionerate": "District", "latitude": 17.3550, "longitude": 80.2350, "phone": "9490625011"},
  {"id": 295, "name": "Kallur PS", "district": "Khammam", "zone": "Khammam", "commissionerate": "District", "latitude": 17.3050, "longitude": 80.0550, "phone": "9490625012"},
  {"id": 296, "name": "Nelakondapally PS", "district": "Khammam", "zone": "Khammam", "commissionerate": "District", "latitude": 17.1050, "longitude": 80.0950, "phone": "9490625013"},
  {"id": 297, "name": "Tirumalayapalem PS", "district": "Khammam", "zone": "Khammam", "commissionerate": "District", "latitude": 17.1550, "longitude": 80.4550, "phone": "9490625014"},
  {"id": 298, "name": "Enkuru PS", "district": "Khammam", "zone": "Khammam", "commissionerate": "District", "latitude": 16.9050, "longitude": 80.3850, "phone": "9490625015"},
  {"id": 299, "name": "Penubally PS", "district": "Khammam", "zone": "Khammam", "commissionerate": "District", "latitude": 17.0650, "longitude": 80.2150, "phone": "9490625016"},
  {"id": 300, "name": "Vemsoor PS", "district": "Khammam", "zone": "Khammam", "commissionerate": "District", "latitude": 17.1850, "longitude": 80.5050, "phone": "9490625017"},
  {"id": 301, "name": "Singareni Collieries PS", "district": "Bhadradri", "zone": "Bhadradri", "commissionerate": "District", "latitude": 17.5850, "longitude": 80.5250, "phone": "9490625018"},
  {"id": 302, "name": "Cherla PS", "district": "Bhadradri", "zone": "Bhadradri", "commissionerate": "District", "latitude": 17.8650, "longitude": 80.7950, "phone": "9490625019"},
  {"id": 303, "name": "Dammapet PS", "district": "Bhadradri", "zone": "Bhadradri", "commissionerate": "District", "latitude": 17.6850, "longitude": 80.6250, "phone": "9490625020"},
  {"id": 304, "name": "Tekulapally PS", "district": "Bhadradri", "zone": "Bhadradri", "commissionerate": "District", "latitude": 17.5450, "longitude": 80.5850, "phone": "9490625021"},
  {"id": 305, "name": "Chandrugonda PS", "district": "Bhadradri", "zone": "Bhadradri", "commissionerate": "District", "latitude": 17.7150, "longitude": 80.4350, "phone": "9490625022"},
  {"id": 306, "name": "Annapureddypally PS", "district": "Bhadradri", "zone": "Bhadradri", "commissionerate": "District", "latitude": 17.8250, "longitude": 80.8550, "phone": "9490625023"},
  {"id": 307, "name": "Munagala PS", "district": "Suryapet", "zone": "Suryapet", "commissionerate": "District", "latitude": 16.9350, "longitude": 79.8050, "phone": "9490626008"},
  {"id": 308, "name": "Nereducharla PS", "district": "Suryapet", "zone": "Suryapet", "commissionerate": "District", "latitude": 17.0550, "longitude": 79.7150, "phone": "9490626009"},
  {"id": 309, "name": "Chivvemla PS", "district": "Suryapet", "zone": "Suryapet", "commissionerate": "District", "latitude": 17.1750, "longitude": 79.8550, "phone": "9490626010"},
  {"id": 310, "name": "Tungaturthi PS", "district": "Suryapet", "zone": "Suryapet", "commissionerate": "District", "latitude": 16.9850, "longitude": 79.5550, "phone": "9490626011"},
  {"id": 311, "name": "Mothkur PS", "district": "Yadadri Bhongir", "zone": "Bhongir", "commissionerate": "District", "latitude": 17.2850, "longitude": 78.9550, "phone": "9490633005"},
  {"id": 312, "name": "Valigonda PS", "district": "Yadadri Bhongir", "zone": "Bhongir", "commissionerate": "District", "latitude": 17.3650, "longitude": 79.0150, "phone": "9490633006"},
  {"id": 313, "name": "Pochampally PS", "district": "Yadadri Bhongir", "zone": "Bhongir", "commissionerate": "District", "latitude": 17.3950, "longitude": 78.8250, "phone": "9490633007"},
  {"id": 314, "name": "Turkaypally PS", "district": "Yadadri Bhongir", "zone": "Bhongir", "commissionerate": "District", "latitude": 17.4250, "longitude": 79.1050, "phone": "9490633008"},
  {"id": 315, "name": "Atmakur Nalgonda PS", "district": "Nalgonda", "zone": "Nalgonda", "commissionerate": "District", "latitude": 17.0050, "longitude": 79.3850, "phone": "9490626012"},
  {"id": 316, "name": "Chandur PS", "district": "Nalgonda", "zone": "Nalgonda", "commissionerate": "District", "latitude": 17.1550, "longitude": 79.3050, "phone": "9490626013"},
  {"id": 317, "name": "Haliya PS", "district": "Nagarkurnool", "zone": "Nagarkurnool", "commissionerate": "District", "latitude": 16.4050, "longitude": 78.4550, "phone": "9490627008"},
  {"id": 318, "name": "Bijinapally PS", "district": "Nagarkurnool", "zone": "Nagarkurnool", "commissionerate": "District", "latitude": 16.3550, "longitude": 78.2550, "phone": "9490627009"},
  {"id": 319, "name": "Veldanda PS", "district": "Nagarkurnool", "zone": "Nagarkurnool", "commissionerate": "District", "latitude": 16.5250, "longitude": 78.5050, "phone": "9490627010"},
  {"id": 320, "name": "Telkapally PS", "district": "Nagarkurnool", "zone": "Nagarkurnool", "commissionerate": "District", "latitude": 16.2550, "longitude": 78.5550, "phone": "9490627011"},
  {"id": 321, "name": "Uppununthala PS", "district": "Nagarkurnool", "zone": "Nagarkurnool", "commissionerate": "District", "latitude": 16.2150, "longitude": 78.4050, "phone": "9490627012"},
  {"id": 322, "name": "Kondurg PS", "district": "Mahabubnagar", "zone": "Mahabubnagar", "commissionerate": "District", "latitude": 16.8350, "longitude": 78.0550, "phone": "9490627013"},
  {"id": 323, "name": "Midjil PS", "district": "Mahabubnagar", "zone": "Mahabubnagar", "commissionerate": "District", "latitude": 16.6150, "longitude": 78.0050, "phone": "9490627014"},
  {"id": 324, "name": "Bhoothpur PS", "district": "Mahabubnagar", "zone": "Mahabubnagar", "commissionerate": "District", "latitude": 16.6850, "longitude": 78.1550, "phone": "9490627015"},
  {"id": 325, "name": "Kosgi PS", "district": "Mahabubnagar", "zone": "Mahabubnagar", "commissionerate": "District", "latitude": 16.8050, "longitude": 77.8350, "phone": "9490627016"},
  {"id": 326, "name": "Maldakal PS", "district": "Mahabubnagar", "zone": "Mahabubnagar", "commissionerate": "District", "latitude": 16.7550, "longitude": 78.2550, "phone": "9490627017"},
  {"id": 327, "name": "Rajpuram PS", "district": "Jogulamba Gadwal", "zone": "Gadwal", "commissionerate": "District", "latitude": 16.1750, "longitude": 77.8550, "phone": "9490628007"},
  {"id": 328, "name": "Ieja PS", "district": "Jogulamba Gadwal", "zone": "Gadwal", "commissionerate": "District", "latitude": 16.3050, "longitude": 77.7550, "phone": "9490628008"},
  {"id": 329, "name": "Ghattu PS", "district": "Jogulamba Gadwal", "zone": "Gadwal", "commissionerate": "District", "latitude": 16.0550, "longitude": 78.0150, "phone": "9490628009"},
  {"id": 330, "name": "Maddur PS", "district": "Narayanpet", "zone": "Narayanpet", "commissionerate": "District", "latitude": 16.6050, "longitude": 77.5050, "phone": "9490628010"},
  {"id": 331, "name": "Dhanwada PS", "district": "Narayanpet", "zone": "Narayanpet", "commissionerate": "District", "latitude": 16.7750, "longitude": 77.3550, "phone": "9490628011"},
  {"id": 332, "name": "Utkoor PS", "district": "Narayanpet", "zone": "Narayanpet", "commissionerate": "District", "latitude": 16.6550, "longitude": 77.6550, "phone": "9490628012"},
  {"id": 333, "name": "Pebbair PS", "district": "Wanaparthy", "zone": "Wanaparthy", "commissionerate": "District", "latitude": 16.5050, "longitude": 78.1050, "phone": "9490628013"},
  {"id": 334, "name": "Srisailam PS", "district": "Nagarkurnool", "zone": "Nagarkurnool", "commissionerate": "District", "latitude": 16.0737, "longitude": 78.8684, "phone": "9490627018"},
  {"id": 335, "name": "Dichpally PS", "district": "Nizamabad", "zone": "Nizamabad", "commissionerate": "District", "latitude": 18.5550, "longitude": 78.1050, "phone": "9490629008"},
  {"id": 336, "name": "Bheemgal PS", "district": "Nizamabad", "zone": "Nizamabad", "commissionerate": "District", "latitude": 18.8550, "longitude": 78.0250, "phone": "9490629009"},
  {"id": 337, "name": "Renjal PS", "district": "Nizamabad", "zone": "Nizamabad", "commissionerate": "District", "latitude": 18.5850, "longitude": 77.9050, "phone": "9490629010"},
  {"id": 338, "name": "Varni PS", "district": "Nizamabad", "zone": "Nizamabad", "commissionerate": "District", "latitude": 18.7150, "longitude": 77.9750, "phone": "9490629011"},
  {"id": 339, "name": "Mortad PS", "district": "Nizamabad", "zone": "Nizamabad", "commissionerate": "District", "latitude": 18.4750, "longitude": 78.1550, "phone": "9490629012"},
  {"id": 340, "name": "Jakranpally PS", "district": "Nizamabad", "zone": "Nizamabad", "commissionerate": "District", "latitude": 18.5250, "longitude": 78.2050, "phone": "9490629013"},
  {"id": 341, "name": "Nandipet PS", "district": "Nizamabad", "zone": "Nizamabad", "commissionerate": "District", "latitude": 18.7550, "longitude": 78.1750, "phone": "9490629014"},
  {"id": 342, "name": "Tadwai PS", "district": "Kamareddy", "zone": "Kamareddy", "commissionerate": "District", "latitude": 18.4550, "longitude": 78.2750, "phone": "9490629015"},
  {"id": 343, "name": "Gandhari PS", "district": "Kamareddy", "zone": "Kamareddy", "commissionerate": "District", "latitude": 18.2250, "longitude": 78.1350, "phone": "9490629016"},
  {"id": 344, "name": "Birkoor PS", "district": "Kamareddy", "zone": "Kamareddy", "commissionerate": "District", "latitude": 18.3050, "longitude": 78.0350, "phone": "9490629017"},
  {"id": 345, "name": "Domakonda PS", "district": "Kamareddy", "zone": "Kamareddy", "commissionerate": "District", "latitude": 18.3850, "longitude": 78.4050, "phone": "9490629018"},
  {"id": 346, "name": "Nizamsagar PS", "district": "Kamareddy", "zone": "Kamareddy", "commissionerate": "District", "latitude": 18.1750, "longitude": 78.2850, "phone": "9490629019"},
  {"id": 347, "name": "Madnoor PS", "district": "Kamareddy", "zone": "Kamareddy", "commissionerate": "District", "latitude": 18.5150, "longitude": 78.1250, "phone": "9490629020"},
  {"id": 348, "name": "Ichoda PS", "district": "Adilabad", "zone": "Adilabad", "commissionerate": "District", "latitude": 19.5050, "longitude": 78.5550, "phone": "9490630009"},
  {"id": 349, "name": "Bazarhathnoor PS", "district": "Adilabad", "zone": "Adilabad", "commissionerate": "District", "latitude": 19.4550, "longitude": 78.6850, "phone": "9490630010"},
  {"id": 350, "name": "Jainath PS", "district": "Adilabad", "zone": "Adilabad", "commissionerate": "District", "latitude": 19.4050, "longitude": 78.4350, "phone": "9490630011"},
  {"id": 351, "name": "Bela PS", "district": "Adilabad", "zone": "Adilabad", "commissionerate": "District", "latitude": 19.5550, "longitude": 78.6250, "phone": "9490630012"},
  {"id": 352, "name": "Gudihathnoor PS", "district": "Adilabad", "zone": "Adilabad", "commissionerate": "District", "latitude": 19.3050, "longitude": 78.6150, "phone": "9490630013"},
  {"id": 353, "name": "Neradigonda PS", "district": "Adilabad", "zone": "Adilabad", "commissionerate": "District", "latitude": 19.2550, "longitude": 78.4750, "phone": "9490630014"},
  {"id": 354, "name": "Narnoor PS", "district": "Adilabad", "zone": "Adilabad", "commissionerate": "District", "latitude": 19.1550, "longitude": 78.7350, "phone": "9490630015"},
  {"id": 355, "name": "Boath PS", "district": "Adilabad", "zone": "Adilabad", "commissionerate": "District", "latitude": 19.4850, "longitude": 78.3150, "phone": "9490630016"},
  {"id": 356, "name": "Luxettipet PS", "district": "Mancherial", "zone": "Mancherial", "commissionerate": "District", "latitude": 18.9350, "longitude": 79.3050, "phone": "9490630017"},
  {"id": 357, "name": "Chennur PS", "district": "Mancherial", "zone": "Mancherial", "commissionerate": "District", "latitude": 18.8550, "longitude": 79.2550, "phone": "9490630018"},
  {"id": 358, "name": "Kasipet PS", "district": "Mancherial", "zone": "Mancherial", "commissionerate": "District", "latitude": 18.9750, "longitude": 79.3850, "phone": "9490630019"},
  {"id": 359, "name": "Jaipur PS", "district": "Mancherial", "zone": "Mancherial", "commissionerate": "District", "latitude": 19.0050, "longitude": 79.2050, "phone": "9490630020"},
  {"id": 360, "name": "Naspur PS", "district": "Mancherial", "zone": "Mancherial", "commissionerate": "District", "latitude": 18.7750, "longitude": 79.4050, "phone": "9490630021"},
  {"id": 361, "name": "Mandamarri PS", "district": "Mancherial", "zone": "Mancherial", "commissionerate": "District", "latitude": 19.0550, "longitude": 79.4150, "phone": "9490630022"},
  {"id": 362, "name": "Manthani PS", "district": "Peddapalli", "zone": "Peddapalli", "commissionerate": "District", "latitude": 18.6450, "longitude": 79.6550, "phone": "9490630023"},
  {"id": 363, "name": "Julapally PS", "district": "Peddapalli", "zone": "Peddapalli", "commissionerate": "District", "latitude": 18.5550, "longitude": 79.4550, "phone": "9490630024"},
  {"id": 364, "name": "Odela PS", "district": "Peddapalli", "zone": "Peddapalli", "commissionerate": "District", "latitude": 18.5050, "longitude": 79.5250, "phone": "9490630025"},
  {"id": 365, "name": "Eligaid PS", "district": "Peddapalli", "zone": "Peddapalli", "commissionerate": "District", "latitude": 18.6850, "longitude": 79.2750, "phone": "9490630026"},
  {"id": 366, "name": "Dilawarpur PS", "district": "Nirmal", "zone": "Nirmal", "commissionerate": "District", "latitude": 19.2250, "longitude": 78.3050, "phone": "9490631006"},
  {"id": 367, "name": "Kubeer PS", "district": "Nirmal", "zone": "Nirmal", "commissionerate": "District", "latitude": 19.2050, "longitude": 78.4550, "phone": "9490631007"},
  {"id": 368, "name": "Laxmanchanda PS", "district": "Nirmal", "zone": "Nirmal", "commissionerate": "District", "latitude": 19.1750, "longitude": 78.2350, "phone": "9490631008"},
  {"id": 369, "name": "Mamda PS", "district": "Nirmal", "zone": "Nirmal", "commissionerate": "District", "latitude": 19.0550, "longitude": 78.1850, "phone": "9490631009"},
  {"id": 370, "name": "Sarangapur PS", "district": "Nirmal", "zone": "Nirmal", "commissionerate": "District", "latitude": 19.0250, "longitude": 78.4050, "phone": "9490631010"},
  {"id": 371, "name": "Khanapur Nirmal PS", "district": "Nirmal", "zone": "Nirmal", "commissionerate": "District", "latitude": 18.9750, "longitude": 78.2550, "phone": "9490631011"},
  {"id": 372, "name": "Wankidi PS", "district": "Kumuram Bheem", "zone": "Asifabad", "commissionerate": "District", "latitude": 19.4850, "longitude": 79.2050, "phone": "9490631012"},
  {"id": 373, "name": "Sirpur PS", "district": "Kumuram Bheem", "zone": "Asifabad", "commissionerate": "District", "latitude": 19.4250, "longitude": 79.5750, "phone": "9490631013"},
  {"id": 374, "name": "Dahegaon PS", "district": "Kumuram Bheem", "zone": "Asifabad", "commissionerate": "District", "latitude": 19.2450, "longitude": 79.3250, "phone": "9490631014"},
  {"id": 375, "name": "Penchikalpet PS", "district": "Kumuram Bheem", "zone": "Asifabad", "commissionerate": "District", "latitude": 19.3150, "longitude": 79.4050, "phone": "9490631015"},
  {"id": 376, "name": "Rebbena PS", "district": "Kumuram Bheem", "zone": "Asifabad", "commissionerate": "District", "latitude": 19.3550, "longitude": 79.1550, "phone": "9490631016"},
  {"id": 377, "name": "Kerameri PS", "district": "Kumuram Bheem", "zone": "Asifabad", "commissionerate": "District", "latitude": 19.2850, "longitude": 79.2350, "phone": "9490631017"},
  {"id": 378, "name": "Bejjur PS", "district": "Kumuram Bheem", "zone": "Asifabad", "commissionerate": "District", "latitude": 19.1550, "longitude": 79.4850, "phone": "9490631018"},
  {"id": 379, "name": "Dhanora PS", "district": "Vikarabad", "zone": "Vikarabad", "commissionerate": "District", "latitude": 17.2150, "longitude": 77.6550, "phone": "9490632007"},
  {"id": 380, "name": "Bommaraspet PS", "district": "Vikarabad", "zone": "Vikarabad", "commissionerate": "District", "latitude": 17.3850, "longitude": 77.7550, "phone": "9490632008"},
  {"id": 381, "name": "Kulkacherla PS", "district": "Vikarabad", "zone": "Vikarabad", "commissionerate": "District", "latitude": 17.1550, "longitude": 77.8050, "phone": "9490632009"},
  {"id": 382, "name": "Nawabpet PS", "district": "Vikarabad", "zone": "Vikarabad", "commissionerate": "District", "latitude": 17.2850, "longitude": 78.0150, "phone": "9490632010"},
  {"id": 383, "name": "Marpally PS", "district": "Vikarabad", "zone": "Vikarabad", "commissionerate": "District", "latitude": 17.3450, "longitude": 78.0550, "phone": "9490632011"},
  {"id": 384, "name": "Doulatabad PS", "district": "Vikarabad", "zone": "Vikarabad", "commissionerate": "District", "latitude": 17.2450, "longitude": 77.9050, "phone": "9490632012"},
  {"id": 385, "name": "Pedda Shankarampet PS", "district": "Medak", "zone": "Medak", "commissionerate": "District", "latitude": 17.8150, "longitude": 78.1850, "phone": "9490620010"},
  {"id": 386, "name": "Regode PS", "district": "Medak", "zone": "Medak", "commissionerate": "District", "latitude": 17.9850, "longitude": 78.2050, "phone": "9490620011"},
  {"id": 387, "name": "Papannapet PS", "district": "Medak", "zone": "Medak", "commissionerate": "District", "latitude": 17.8550, "longitude": 78.0550, "phone": "9490620012"},
  {"id": 388, "name": "Chegunta PS", "district": "Medak", "zone": "Medak", "commissionerate": "District", "latitude": 17.7750, "longitude": 78.4950, "phone": "9490620013"},
  {"id": 389, "name": "Mulugu Medak PS", "district": "Medak", "zone": "Medak", "commissionerate": "District", "latitude": 17.6250, "longitude": 78.3650, "phone": "9490620014"},
  {"id": 390, "name": "Kowdipally PS", "district": "Medak", "zone": "Medak", "commissionerate": "District", "latitude": 17.6950, "longitude": 78.4250, "phone": "9490620015"},
  {"id": 391, "name": "Akkannapeta PS", "district": "Siddipet", "zone": "Siddipet", "commissionerate": "District", "latitude": 18.1550, "longitude": 78.7350, "phone": "9490621012"},
  {"id": 392, "name": "Nanganoor PS", "district": "Siddipet", "zone": "Siddipet", "commissionerate": "District", "latitude": 17.9950, "longitude": 78.9550, "phone": "9490621013"},
  {"id": 393, "name": "Dommara PS", "district": "Siddipet", "zone": "Siddipet", "commissionerate": "District", "latitude": 17.8550, "longitude": 78.8050, "phone": "9490621014"},
  {"id": 394, "name": "Kondapaka PS", "district": "Siddipet", "zone": "Siddipet", "commissionerate": "District", "latitude": 17.9550, "longitude": 78.6350, "phone": "9490621015"},
  {"id": 395, "name": "Mirdoddi PS", "district": "Siddipet", "zone": "Siddipet", "commissionerate": "District", "latitude": 17.8850, "longitude": 78.5850, "phone": "9490621016"},
  {"id": 396, "name": "Wargal PS", "district": "Siddipet", "zone": "Siddipet", "commissionerate": "District", "latitude": 17.7850, "longitude": 78.6050, "phone": "9490621017"},
  {"id": 397, "name": "Jagdevpur PS", "district": "Siddipet", "zone": "Siddipet", "commissionerate": "District", "latitude": 18.0750, "longitude": 78.9050, "phone": "9490621018"},
  {"id": 398, "name": "Ibrahimpur PS", "district": "Warangal Urban", "zone": "Warangal", "commissionerate": "Warangal", "latitude": 18.0350, "longitude": 79.5250, "phone": "9490623027"},
  {"id": 399, "name": "Hasanparthy PS", "district": "Warangal Urban", "zone": "Warangal", "commissionerate": "Warangal", "latitude": 17.9250, "longitude": 79.4750, "phone": "9490623028"},
  {"id": 400, "name": "Nekkonda PS", "district": "Warangal Rural", "zone": "Warangal Rural", "commissionerate": "District", "latitude": 17.8950, "longitude": 79.8550, "phone": "9490623029"},
  {"id": 401, "name": "Station Ghanpur PS", "district": "Jangaon", "zone": "Jangaon", "commissionerate": "District", "latitude": 17.7250, "longitude": 79.2350, "phone": "9490623030"},
  {"id": 402, "name": "Palakurthi PS", "district": "Jangaon", "zone": "Jangaon", "commissionerate": "District", "latitude": 17.6350, "longitude": 79.2850, "phone": "9490623031"},
  {"id": 403, "name": "Narsimhulapet PS", "district": "Jangaon", "zone": "Jangaon", "commissionerate": "District", "latitude": 17.6850, "longitude": 79.3550, "phone": "9490623032"},
  {"id": 404, "name": "Lingala PS", "district": "Jangaon", "zone": "Jangaon", "commissionerate": "District", "latitude": 17.5950, "longitude": 79.2050, "phone": "9490623033"},
  {"id": 405, "name": "Duggondi PS", "district": "Jangaon", "zone": "Jangaon", "commissionerate": "District", "latitude": 17.8150, "longitude": 79.3150, "phone": "9490623034"},
  {"id": 406, "name": "Devaruppula PS", "district": "Jangaon", "zone": "Jangaon", "commissionerate": "District", "latitude": 17.7550, "longitude": 79.3750, "phone": "9490623035"},
  {"id": 407, "name": "Chintakani PS", "district": "Khammam", "zone": "Khammam", "commissionerate": "District", "latitude": 17.3850, "longitude": 80.3450, "phone": "9490625024"},
  {"id": 408, "name": "Khammam Rural PS", "district": "Khammam", "zone": "Khammam", "commissionerate": "District", "latitude": 17.2150, "longitude": 80.1250, "phone": "9490625025"},
  {"id": 409, "name": "Raghunadhapalem PS", "district": "Khammam", "zone": "Khammam", "commissionerate": "District", "latitude": 17.1350, "longitude": 80.5350, "phone": "9490625026"},
  {"id": 410, "name": "Mudigonda PS", "district": "Khammam", "zone": "Khammam", "commissionerate": "District", "latitude": 17.0550, "longitude": 80.2750, "phone": "9490625027"},
  {"id": 411, "name": "Kusumanchi PS", "district": "Khammam", "zone": "Khammam", "commissionerate": "District", "latitude": 17.0150, "longitude": 80.1950, "phone": "9490625028"},
  {"id": 412, "name": "Tallada PS", "district": "Khammam", "zone": "Khammam", "commissionerate": "District", "latitude": 17.0850, "longitude": 80.4150, "phone": "9490625029"},
  {"id": 413, "name": "Julurpad PS", "district": "Bhadradri", "zone": "Bhadradri", "commissionerate": "District", "latitude": 17.7550, "longitude": 80.8750, "phone": "9490625030"},
  {"id": 414, "name": "Pinapaka PS", "district": "Bhadradri", "zone": "Bhadradri", "commissionerate": "District", "latitude": 17.6350, "longitude": 80.7050, "phone": "9490625031"},
  {"id": 415, "name": "Gundala PS", "district": "Bhadradri", "zone": "Bhadradri", "commissionerate": "District", "latitude": 17.5850, "longitude": 80.4550, "phone": "9490625032"},
  {"id": 416, "name": "Illendu PS", "district": "Bhadradri", "zone": "Bhadradri", "commissionerate": "District", "latitude": 17.4850, "longitude": 80.5750, "phone": "9490625033"},
  {"id": 417, "name": "Chunchupally PS", "district": "Bhadradri", "zone": "Bhadradri", "commissionerate": "District", "latitude": 17.4350, "longitude": 80.6550, "phone": "9490625034"},
  {"id": 418, "name": "Dummugudem PS", "district": "Bhadradri", "zone": "Bhadradri", "commissionerate": "District", "latitude": 17.7850, "longitude": 80.5250, "phone": "9490625035"},
  {"id": 419, "name": "Ashwaraopet PS", "district": "Bhadradri", "zone": "Bhadradri", "commissionerate": "District", "latitude": 17.2850, "longitude": 81.0150, "phone": "9490625036"},
  {"id": 420, "name": "Burgampadu PS", "district": "Bhadradri", "zone": "Bhadradri", "commissionerate": "District", "latitude": 17.3850, "longitude": 80.8050, "phone": "9490625037"},
  {"id": 421, "name": "Pocharam PS", "district": "Medchal-Malkajgiri", "zone": "Medchal", "commissionerate": "District", "latitude": 17.6550, "longitude": 78.5050, "phone": "9490635007"},
  {"id": 422, "name": "Muduchinthalapally PS", "district": "Medchal-Malkajgiri", "zone": "Medchal", "commissionerate": "District", "latitude": 17.5950, "longitude": 78.6150, "phone": "9490635008"},
  {"id": 423, "name": "Turkapally PS", "district": "Medchal-Malkajgiri", "zone": "Medchal", "commissionerate": "District", "latitude": 17.6150, "longitude": 78.5550, "phone": "9490635009"},
  {"id": 424, "name": "Gandimaisamma PS", "district": "Medchal-Malkajgiri", "zone": "Medchal", "commissionerate": "District", "latitude": 17.5350, "longitude": 78.4350, "phone": "9490635010"},
  {"id": 425, "name": "Dammaiguda PS", "district": "Medchal-Malkajgiri", "zone": "Medchal", "commissionerate": "District", "latitude": 17.5050, "longitude": 78.5650, "phone": "9490635011"},
  {"id": 426, "name": "Nagaram PS", "district": "Medchal-Malkajgiri", "zone": "Medchal", "commissionerate": "District", "latitude": 17.4850, "longitude": 78.5850, "phone": "9490635012"},
  {"id": 427, "name": "Suraram PS", "district": "Medchal-Malkajgiri", "zone": "Medchal", "commissionerate": "District", "latitude": 17.5550, "longitude": 78.4550, "phone": "9490635013"},
  {"id": 428, "name": "Mallapur PS", "district": "Medchal-Malkajgiri", "zone": "Medchal", "commissionerate": "District", "latitude": 17.4450, "longitude": 78.5350, "phone": "9490635014"},
  {"id": 429, "name": "Cherlapally PS", "district": "Medchal-Malkajgiri", "zone": "Medchal", "commissionerate": "District", "latitude": 17.4280, "longitude": 78.5780, "phone": "9490635015"},
  {"id": 430, "name": "Boduppal PS", "district": "Medchal-Malkajgiri", "zone": "Medchal", "commissionerate": "District", "latitude": 17.4180, "longitude": 78.5680, "phone": "9490635016"},
  {"id": 431, "name": "Ghanapur PS", "district": "Medchal-Malkajgiri", "zone": "Medchal", "commissionerate": "District", "latitude": 17.6080, "longitude": 78.6380, "phone": "9490635017"},
  {"id": 432, "name": "Kistareddypet PS", "district": "Sangareddy", "zone": "Sangareddy", "commissionerate": "District", "latitude": 17.5550, "longitude": 78.0550, "phone": "9490618013"},
  {"id": 433, "name": "Vatpally PS", "district": "Sangareddy", "zone": "Sangareddy", "commissionerate": "District", "latitude": 17.5150, "longitude": 77.9250, "phone": "9490618014"},
  {"id": 434, "name": "Jharasangam PS", "district": "Sangareddy", "zone": "Sangareddy", "commissionerate": "District", "latitude": 17.7750, "longitude": 77.6950, "phone": "9490618015"},
  {"id": 435, "name": "Manoor PS", "district": "Sangareddy", "zone": "Sangareddy", "commissionerate": "District", "latitude": 17.6650, "longitude": 77.9350, "phone": "9490618016"},
  {"id": 436, "name": "Raikode PS", "district": "Sangareddy", "zone": "Sangareddy", "commissionerate": "District", "latitude": 17.7550, "longitude": 77.5850, "phone": "9490618017"},
  {"id": 437, "name": "Kalher PS", "district": "Sangareddy", "zone": "Sangareddy", "commissionerate": "District", "latitude": 17.8050, "longitude": 77.6550, "phone": "9490618018"},
  {"id": 438, "name": "Mogudampally PS", "district": "Sangareddy", "zone": "Sangareddy", "commissionerate": "District", "latitude": 17.6350, "longitude": 77.8550, "phone": "9490618019"},
  {"id": 439, "name": "Narsapur Rural PS", "district": "Medak", "zone": "Medak", "commissionerate": "District", "latitude": 17.7250, "longitude": 78.2850, "phone": "9490620016"},
  {"id": 440, "name": "Yelwal PS", "district": "Nizamabad", "zone": "Nizamabad", "commissionerate": "District", "latitude": 18.8050, "longitude": 77.9050, "phone": "9490629021"},
  {"id": 441, "name": "Mupkal PS", "district": "Nizamabad", "zone": "Nizamabad", "commissionerate": "District", "latitude": 18.5050, "longitude": 77.9550, "phone": "9490629022"},
  {"id": 442, "name": "Balkonda PS", "district": "Nizamabad", "zone": "Nizamabad", "commissionerate": "District", "latitude": 18.8550, "longitude": 78.2050, "phone": "9490629023"},
  {"id": 443, "name": "Navipet PS", "district": "Nizamabad", "zone": "Nizamabad", "commissionerate": "District", "latitude": 18.4050, "longitude": 78.2550, "phone": "9490629024"},
  {"id": 444, "name": "Velpur PS", "district": "Nizamabad", "zone": "Nizamabad", "commissionerate": "District", "latitude": 18.6050, "longitude": 78.2050, "phone": "9490629025"},
  {"id": 445, "name": "Pitlam PS", "district": "Kamareddy", "zone": "Kamareddy", "commissionerate": "District", "latitude": 18.3550, "longitude": 78.2050, "phone": "9490629026"},
  {"id": 446, "name": "Machareddy PS", "district": "Kamareddy", "zone": "Kamareddy", "commissionerate": "District", "latitude": 18.2650, "longitude": 78.2550, "phone": "9490629027"},
  {"id": 447, "name": "Nasrulabad PS", "district": "Kamareddy", "zone": "Kamareddy", "commissionerate": "District", "latitude": 18.4250, "longitude": 78.4550, "phone": "9490629028"},
  {"id": 448, "name": "Rajampet PS", "district": "Kamareddy", "zone": "Kamareddy", "commissionerate": "District", "latitude": 18.2050, "longitude": 78.3550, "phone": "9490629029"},
  {"id": 449, "name": "Sadasivnagar PS", "district": "Kamareddy", "zone": "Kamareddy", "commissionerate": "District", "latitude": 18.3350, "longitude": 78.2950, "phone": "9490629030"},
  {"id": 450, "name": "Lingampet PS", "district": "Kamareddy", "zone": "Kamareddy", "commissionerate": "District", "latitude": 18.4550, "longitude": 78.0550, "phone": "9490629031"},
  {"id": 451, "name": "Nizam Sagar PS", "district": "Kamareddy", "zone": "Kamareddy", "commissionerate": "District", "latitude": 18.1650, "longitude": 78.3150, "phone": "9490629032"},
  {"id": 452, "name": "Bibipet PS", "district": "Kamareddy", "zone": "Kamareddy", "commissionerate": "District", "latitude": 18.2450, "longitude": 78.4350, "phone": "9490629033"},
  {"id": 453, "name": "Sirikonda PS", "district": "Adilabad", "zone": "Adilabad", "commissionerate": "District", "latitude": 19.5950, "longitude": 78.4350, "phone": "9490630027"},
  {"id": 454, "name": "Tamsi PS", "district": "Adilabad", "zone": "Adilabad", "commissionerate": "District", "latitude": 19.7250, "longitude": 78.5850, "phone": "9490630028"},
  {"id": 455, "name": "Indervelly PS", "district": "Adilabad", "zone": "Adilabad", "commissionerate": "District", "latitude": 19.5550, "longitude": 78.7550, "phone": "9490630029"},
  {"id": 456, "name": "Mudela PS", "district": "Adilabad", "zone": "Adilabad", "commissionerate": "District", "latitude": 19.6350, "longitude": 78.6750, "phone": "9490630030"},
  {"id": 457, "name": "Mavala PS", "district": "Adilabad", "zone": "Adilabad", "commissionerate": "District", "latitude": 19.5150, "longitude": 78.3650, "phone": "9490630031"},
  {"id": 458, "name": "Tanoor PS", "district": "Adilabad", "zone": "Adilabad", "commissionerate": "District", "latitude": 19.4350, "longitude": 78.5150, "phone": "9490630032"},
  {"id": 459, "name": "Dahegaon Mancherial PS", "district": "Mancherial", "zone": "Mancherial", "commissionerate": "District", "latitude": 19.1050, "longitude": 79.2650, "phone": "9490630033"},
  {"id": 460, "name": "Kotapally PS", "district": "Mancherial", "zone": "Mancherial", "commissionerate": "District", "latitude": 18.9550, "longitude": 79.5550, "phone": "9490630034"},
  {"id": 461, "name": "Kannepally PS", "district": "Mancherial", "zone": "Mancherial", "commissionerate": "District", "latitude": 18.7950, "longitude": 79.3450, "phone": "9490630035"},
  {"id": 462, "name": "Hajipur PS", "district": "Mancherial", "zone": "Mancherial", "commissionerate": "District", "latitude": 19.0950, "longitude": 79.4050, "phone": "9490630036"},
  {"id": 463, "name": "Vemanpally PS", "district": "Mancherial", "zone": "Mancherial", "commissionerate": "District", "latitude": 18.9150, "longitude": 79.1550, "phone": "9490630037"},
  {"id": 464, "name": "Adilabad Rural PS", "district": "Adilabad", "zone": "Adilabad", "commissionerate": "District", "latitude": 19.6550, "longitude": 78.5450, "phone": "9490630038"},
  {"id": 465, "name": "Nirmal Rural PS", "district": "Nirmal", "zone": "Nirmal", "commissionerate": "District", "latitude": 19.0850, "longitude": 78.3550, "phone": "9490631019"},
  {"id": 466, "name": "Soan PS", "district": "Nirmal", "zone": "Nirmal", "commissionerate": "District", "latitude": 18.9550, "longitude": 78.1650, "phone": "9490631020"},
  {"id": 467, "name": "Darpally PS", "district": "Nirmal", "zone": "Nirmal", "commissionerate": "District", "latitude": 19.0150, "longitude": 78.0850, "phone": "9490631021"},
  {"id": 468, "name": "Lokeshwaram PS", "district": "Nirmal", "zone": "Nirmal", "commissionerate": "District", "latitude": 19.1450, "longitude": 78.1550, "phone": "9490631022"},
  {"id": 469, "name": "Mudhol PS", "district": "Nirmal", "zone": "Nirmal", "commissionerate": "District", "latitude": 19.3050, "longitude": 78.2850, "phone": "9490631023"},
  {"id": 470, "name": "Kowthala PS", "district": "Jagtial", "zone": "Jagtial", "commissionerate": "District", "latitude": 18.8750, "longitude": 78.9550, "phone": "9490634007"},
  {"id": 471, "name": "Ibrahimpatnam Jagtial PS", "district": "Jagtial", "zone": "Jagtial", "commissionerate": "District", "latitude": 18.7150, "longitude": 78.8050, "phone": "9490634008"},
  {"id": 472, "name": "Mohanraonagar PS", "district": "Jagtial", "zone": "Jagtial", "commissionerate": "District", "latitude": 18.8550, "longitude": 78.6550, "phone": "9490634009"},
  {"id": 473, "name": "Pegadapally PS", "district": "Jagtial", "zone": "Jagtial", "commissionerate": "District", "latitude": 18.6950, "longitude": 78.9050, "phone": "9490634010"},
  {"id": 474, "name": "Buggaram PS", "district": "Jagtial", "zone": "Jagtial", "commissionerate": "District", "latitude": 18.6350, "longitude": 78.7550, "phone": "9490634011"},
  {"id": 475, "name": "Sarangpur Jagtial PS", "district": "Jagtial", "zone": "Jagtial", "commissionerate": "District", "latitude": 18.7750, "longitude": 79.0350, "phone": "9490634012"},
  {"id": 476, "name": "Kathlapur PS", "district": "Jagtial", "zone": "Jagtial", "commissionerate": "District", "latitude": 18.9650, "longitude": 79.0150, "phone": "9490634013"},
  {"id": 477, "name": "Malyal PS", "district": "Jagtial", "zone": "Jagtial", "commissionerate": "District", "latitude": 18.9050, "longitude": 79.2050, "phone": "9490634014"},
  {"id": 478, "name": "Beerpur PS", "district": "Jagtial", "zone": "Jagtial", "commissionerate": "District", "latitude": 18.7050, "longitude": 78.7050, "phone": "9490634015"},
  {"id": 479, "name": "Medipally Jagtial PS", "district": "Jagtial", "zone": "Jagtial", "commissionerate": "District", "latitude": 18.8150, "longitude": 78.7550, "phone": "9490634016"},
  {"id": 480, "name": "Makloor PS", "district": "Nizamabad", "zone": "Nizamabad", "commissionerate": "District", "latitude": 18.6550, "longitude": 78.1750, "phone": "9490629034"},
  {"id": 481, "name": "Ramadugu PS", "district": "Karimnagar", "zone": "Karimnagar", "commissionerate": "District", "latitude": 18.3550, "longitude": 79.2450, "phone": "9490622016"},
  {"id": 482, "name": "Gangadhara PS", "district": "Karimnagar", "zone": "Karimnagar", "commissionerate": "District", "latitude": 18.5150, "longitude": 78.9450, "phone": "9490622017"},
  {"id": 483, "name": "Shankarapatnam PS", "district": "Karimnagar", "zone": "Karimnagar", "commissionerate": "District", "latitude": 18.3950, "longitude": 78.9150, "phone": "9490622018"},
  {"id": 484, "name": "Ramagundam Rural PS", "district": "Peddapalli", "zone": "Ramagundam", "commissionerate": "Ramagundam", "latitude": 18.7350, "longitude": 79.4550, "phone": "9490630039"},
  {"id": 485, "name": "Kamanpur PS", "district": "Peddapalli", "zone": "Peddapalli", "commissionerate": "District", "latitude": 18.7550, "longitude": 79.2550, "phone": "9490630040"},
  {"id": 486, "name": "Anthargaon PS", "district": "Peddapalli", "zone": "Peddapalli", "commissionerate": "District", "latitude": 18.5750, "longitude": 79.3050, "phone": "9490630041"},
  {"id": 487, "name": "Kalvacherla PS", "district": "Peddapalli", "zone": "Peddapalli", "commissionerate": "District", "latitude": 18.6150, "longitude": 79.2050, "phone": "9490630042"},
  {"id": 488, "name": "Julapally PS", "district": "Peddapalli", "zone": "Peddapalli", "commissionerate": "District", "latitude": 18.5850, "longitude": 79.4150, "phone": "9490630043"},
  {"id": 489, "name": "Dharmaram PS", "district": "Peddapalli", "zone": "Peddapalli", "commissionerate": "District", "latitude": 18.6750, "longitude": 79.4950, "phone": "9490630044"},
  {"id": 490, "name": "Serilingampally PS", "district": "Cyberabad", "zone": "IT Corridor", "commissionerate": "Cyberabad", "latitude": 17.4850, "longitude": 78.3050, "phone": "9490617012"},
  {"id": 491, "name": "Lingampally PS", "district": "Cyberabad", "zone": "IT Corridor", "commissionerate": "Cyberabad", "latitude": 17.4750, "longitude": 78.3180, "phone": "9490617013"},
  {"id": 492, "name": "Gopanpally PS", "district": "Cyberabad", "zone": "IT Corridor", "commissionerate": "Cyberabad", "latitude": 17.4650, "longitude": 78.3350, "phone": "9490617014"},
  {"id": 493, "name": "Nallagandla PS", "district": "Cyberabad", "zone": "IT Corridor", "commissionerate": "Cyberabad", "latitude": 17.4550, "longitude": 78.3280, "phone": "9490617015"},
  {"id": 494, "name": "Alkapoor PS", "district": "Cyberabad", "zone": "IT Corridor", "commissionerate": "Cyberabad", "latitude": 17.4350, "longitude": 78.3850, "phone": "9490617016"},
  {"id": 495, "name": "Kokapet PS", "district": "Cyberabad", "zone": "IT Corridor", "commissionerate": "Cyberabad", "latitude": 17.4080, "longitude": 78.3520, "phone": "9490617017"},
  {"id": 496, "name": "Khajaguda PS", "district": "Cyberabad", "zone": "IT Corridor", "commissionerate": "Cyberabad", "latitude": 17.4180, "longitude": 78.3680, "phone": "9490617018"},
  {"id": 497, "name": "Puppalguda PS", "district": "Cyberabad", "zone": "IT Corridor", "commissionerate": "Cyberabad", "latitude": 17.3950, "longitude": 78.3780, "phone": "9490617019"},
  {"id": 498, "name": "Telangana Cyber PS", "district": "Cyberabad", "zone": "Special", "commissionerate": "Cyberabad", "latitude": 17.4280, "longitude": 78.3650, "phone": "9490617999"},
  {"id": 499, "name": "She Team PS Hyderabad", "district": "Hyderabad", "zone": "Special", "commissionerate": "Hyderabad", "latitude": 17.4100, "longitude": 78.4800, "phone": "9490616998"},
  {"id": 500, "name": "Women PS Hyderabad", "district": "Hyderabad", "zone": "Special", "commissionerate": "Hyderabad", "latitude": 17.4050, "longitude": 78.4750, "phone": "9490616997"},
  {"id": 501, "name": "Railway PS Secunderabad", "district": "Hyderabad", "zone": "Railway", "commissionerate": "Railway", "latitude": 17.4340, "longitude": 78.5020, "phone": "9490640001"},
  {"id": 502, "name": "Railway PS Kachiguda", "district": "Hyderabad", "zone": "Railway", "commissionerate": "Railway", "latitude": 17.3940, "longitude": 78.5020, "phone": "9490640002"},
  {"id": 503, "name": "Railway PS Nampally", "district": "Hyderabad", "zone": "Railway", "commissionerate": "Railway", "latitude": 17.3850, "longitude": 78.4860, "phone": "9490640003"},
  {"id": 504, "name": "Railway PS Kazipet", "district": "Warangal Urban", "zone": "Railway", "commissionerate": "Railway", "latitude": 17.9620, "longitude": 79.5150, "phone": "9490640004"},
  {"id": 505, "name": "Railway PS Warangal", "district": "Warangal Urban", "zone": "Railway", "commissionerate": "Railway", "latitude": 17.9750, "longitude": 79.5850, "phone": "9490640005"},
  {"id": 506, "name": "Railway PS Karimnagar", "district": "Karimnagar", "zone": "Railway", "commissionerate": "Railway", "latitude": 18.4350, "longitude": 79.1250, "phone": "9490640006"},
  {"id": 507, "name": "Railway PS Khammam", "district": "Khammam", "zone": "Railway", "commissionerate": "Railway", "latitude": 17.2450, "longitude": 80.1480, "phone": "9490640007"},
  {"id": 508, "name": "Traffic PS Begumpet", "district": "Hyderabad", "zone": "Traffic", "commissionerate": "Hyderabad", "latitude": 17.4410, "longitude": 78.4650, "phone": "9490641001"},
  {"id": 509, "name": "Traffic PS Jubilee Hills", "district": "Hyderabad", "zone": "Traffic", "commissionerate": "Hyderabad", "latitude": 17.4320, "longitude": 78.4150, "phone": "9490641002"},
  {"id": 510, "name": "Traffic PS Madhapur", "district": "Cyberabad", "zone": "Traffic", "commissionerate": "Cyberabad", "latitude": 17.4486, "longitude": 78.3908, "phone": "9490641003"},
  {"id": 511, "name": "Traffic PS LB Nagar", "district": "Rachakonda", "zone": "Traffic", "commissionerate": "Rachakonda", "latitude": 17.3495, "longitude": 78.5495, "phone": "9490641004"},
  {"id": 512, "name": "Kankanalapally PS", "district": "Nalgonda", "zone": "Nalgonda", "commissionerate": "District", "latitude": 17.0750, "longitude": 79.1850, "phone": "9490626014"},
  {"id": 513, "name": "Nidamanur PS", "district": "Nalgonda", "zone": "Nalgonda", "commissionerate": "District", "latitude": 16.9150, "longitude": 79.3850, "phone": "9490626015"},
  {"id": 514, "name": "Tripuraram PS", "district": "Nalgonda", "zone": "Nalgonda", "commissionerate": "District", "latitude": 16.8550, "longitude": 79.4550, "phone": "9490626016"},
  {"id": 515, "name": "Gurrampode PS", "district": "Nalgonda", "zone": "Nalgonda", "commissionerate": "District", "latitude": 17.2050, "longitude": 79.2050, "phone": "9490626017"},
  {"id": 516, "name": "Narketpally PS", "district": "Nalgonda", "zone": "Nalgonda", "commissionerate": "District", "latitude": 17.1950, "longitude": 79.1650, "phone": "9490626018"},
  {"id": 517, "name": "Kattangur PS", "district": "Nalgonda", "zone": "Nalgonda", "commissionerate": "District", "latitude": 16.9850, "longitude": 79.1650, "phone": "9490626019"},
  {"id": 518, "name": "Marriguda PS", "district": "Nalgonda", "zone": "Nalgonda", "commissionerate": "District", "latitude": 16.7850, "longitude": 79.4050, "phone": "9490626020"},
  {"id": 519, "name": "Thipparthi PS", "district": "Nalgonda", "zone": "Nalgonda", "commissionerate": "District", "latitude": 17.1050, "longitude": 79.0850, "phone": "9490626021"},
  {"id": 520, "name": "Chilkur PS", "district": "Nalgonda", "zone": "Nalgonda", "commissionerate": "District", "latitude": 17.1650, "longitude": 79.3450, "phone": "9490626022"},
  {"id": 521, "name": "Penpahad PS", "district": "Suryapet", "zone": "Suryapet", "commissionerate": "District", "latitude": 17.0950, "longitude": 79.5050, "phone": "9490626023"},
  {"id": 522, "name": "Athmakur Suryapet PS", "district": "Suryapet", "zone": "Suryapet", "commissionerate": "District", "latitude": 17.2050, "longitude": 79.7650, "phone": "9490626024"},
  {"id": 523, "name": "Nadigudem PS", "district": "Suryapet", "zone": "Suryapet", "commissionerate": "District", "latitude": 17.0350, "longitude": 79.8050, "phone": "9490626025"},
  {"id": 524, "name": "Tirumalgiri PS", "district": "Suryapet", "zone": "Suryapet", "commissionerate": "District", "latitude": 17.1050, "longitude": 79.6850, "phone": "9490626026"},
  {"id": 525, "name": "Neredcherla PS", "district": "Suryapet", "zone": "Suryapet", "commissionerate": "District", "latitude": 17.0350, "longitude": 79.7050, "phone": "9490626027"},
  {"id": 526, "name": "Palakeedu PS", "district": "Suryapet", "zone": "Suryapet", "commissionerate": "District", "latitude": 16.9350, "longitude": 79.7350, "phone": "9490626028"},
  {"id": 527, "name": "Motakondur PS", "district": "Suryapet", "zone": "Suryapet", "commissionerate": "District", "latitude": 16.8450, "longitude": 79.8350, "phone": "9490626029"},
  {"id": 528, "name": "Mellacheruvu PS", "district": "Suryapet", "zone": "Suryapet", "commissionerate": "District", "latitude": 17.1850, "longitude": 79.9050, "phone": "9490626030"},
  {"id": 529, "name": "Ananthagiri PS", "district": "Suryapet", "zone": "Suryapet", "commissionerate": "District", "latitude": 16.8850, "longitude": 79.6050, "phone": "9490626031"},
  {"id": 530, "name": "Narayanpur PS", "district": "Medak", "zone": "Medak", "commissionerate": "District", "latitude": 17.9250, "longitude": 78.0850, "phone": "9490620017"},
  {"id": 531, "name": "Chilpur PS", "district": "Medak", "zone": "Medak", "commissionerate": "District", "latitude": 17.7450, "longitude": 78.0650, "phone": "9490620018"},
  {"id": 532, "name": "Doulthabad PS", "district": "Medak", "zone": "Medak", "commissionerate": "District", "latitude": 17.6850, "longitude": 78.1750, "phone": "9490620019"},
  {"id": 533, "name": "Kalher PS", "district": "Medak", "zone": "Medak", "commissionerate": "District", "latitude": 17.8250, "longitude": 77.9850, "phone": "9490620020"},
  {"id": 534, "name": "Manopad PS", "district": "Medak", "zone": "Medak", "commissionerate": "District", "latitude": 17.8550, "longitude": 78.1050, "phone": "9490620021"},
  {"id": 535, "name": "Lingala Ghanpur PS", "district": "Medak", "zone": "Medak", "commissionerate": "District", "latitude": 17.9050, "longitude": 78.2650, "phone": "9490620022"},
  {"id": 536, "name": "Gollapally PS", "district": "Sangareddy", "zone": "Sangareddy", "commissionerate": "District", "latitude": 17.7150, "longitude": 78.1050, "phone": "9490618020"},
  {"id": 537, "name": "Mogudampally PS", "district": "Sangareddy", "zone": "Sangareddy", "commissionerate": "District", "latitude": 17.6250, "longitude": 77.8350, "phone": "9490618021"},
  {"id": 538, "name": "Kalher Sangareddy PS", "district": "Sangareddy", "zone": "Sangareddy", "commissionerate": "District", "latitude": 17.8150, "longitude": 77.6450, "phone": "9490618022"},
  {"id": 539, "name": "Regode Sangareddy PS", "district": "Sangareddy", "zone": "Sangareddy", "commissionerate": "District", "latitude": 17.9650, "longitude": 78.1850, "phone": "9490618023"},
  {"id": 540, "name": "Muthangi PS", "district": "Sangareddy", "zone": "Sangareddy", "commissionerate": "District", "latitude": 17.5050, "longitude": 78.2750, "phone": "9490618024"},
  {"id": 541, "name": "Isnapur PS", "district": "Sangareddy", "zone": "Sangareddy", "commissionerate": "District", "latitude": 17.5250, "longitude": 78.2550, "phone": "9490618025"},
  {"id": 542, "name": "Gummadidala PS", "district": "Sangareddy", "zone": "Sangareddy", "commissionerate": "District", "latitude": 17.5450, "longitude": 78.3050, "phone": "9490618026"},
  {"id": 543, "name": "Eddumailaram PS", "district": "Sangareddy", "zone": "Sangareddy", "commissionerate": "District", "latitude": 17.5150, "longitude": 78.1950, "phone": "9490618027"},
  {"id": 544, "name": "Rudraram PS", "district": "Sangareddy", "zone": "Sangareddy", "commissionerate": "District", "latitude": 17.5350, "longitude": 78.2150, "phone": "9490618028"},
  {"id": 545, "name": "Sadashivpet Rural PS", "district": "Sangareddy", "zone": "Sangareddy", "commissionerate": "District", "latitude": 17.6050, "longitude": 77.9350, "phone": "9490618029"},